City_ID,City,Lat,Lng,Max Temp,Humidity,Cloudiness,Wind Speed,Country,Date
0,port-aux-francais,-49.35,70.2167,0.71,64,40,1.16,TF,1722866688
1,albany,42.6001,-73.9662,26.26,70,6,0.45,US,1722866681
2,edinburgh of the seven seas,-37.0676,-12.3116,13.94,81,55,13.57,SH,1722866690
3,carnarvon,-24.8667,113.6333,18.7,59,0,4.95,AU,1722866692
4,alagoinhas,-12.1356,-38.4192,27.42,50,62,5.35,BR,1722866693
5,dazkiri,37.9186,29.8606,35.8,18,18,6.3,TR,1722866694
6,ust-nera,64.5667,143.2,10.8,70,92,1.86,RU,1722866695
7,ushuaia,-54.8,-68.3,-4.21,80,20,2.06,AR,1722866696
8,sarmiento,-45.5882,-69.07,2.93,98,100,4.83,AR,1722866688
9,ouesso,1.6136,16.0517,32.71,42,99,0.86,CG,1722866698
10,blackmans bay,-43.0167,147.3167,10.41,72,90,1.79,AU,1722866699
11,tiksi,71.6872,128.8694,9.43,94,99,2.23,RU,1722866700
12,paola,39.3599,16.0396,34.83,61,100,2.3,IT,1722866701
13,hasaki,35.7333,140.8333,26.22,87,17,0.97,JP,1722866702
14,bredasdorp,-34.5322,20.0403,14.88,62,32,6.68,ZA,1722866475
15,waitangi,-43.9535,-176.5597,8.79,94,91,1.34,NZ,1722866704
16,ulladulla,-35.35,150.4667,7.09,69,84,2.11,AU,1722866705
17,zaozersk,69.4005,32.4476,12.77,72,11,4.93,RU,1722866706
18,adamstown,-25.066,-130.1015,19.44,70,71,6.77,PN,1722866707
19,puerto natales,-51.7236,-72.4875,-0.75,93,20,0.0,CL,1722866708
20,udachny,66.4167,112.4,11.89,81,81,7.72,RU,1722866709
21,barah,13.7,30.3667,32.84,40,97,6.92,SD,1722866417
22,los palacios y villafranca,37.1618,-5.9243,38.9,30,0,3.6,ES,1722866461
23,grytviken,-54.2811,-36.5092,-5.89,76,100,4.4,GS,1722866712
24,soe,-9.8607,124.284,16.48,93,13,2.13,ID,1722866713
25,crane,31.3974,-102.3501,25.78,53,100,3.86,US,1722866588
26,jamestown,42.097,-79.2353,24.84,83,20,3.09,US,1722866492
27,tolanaro,-25.0319,46.9987,26.04,61,0,5.14,MG,1722866508
28,arteche,12.2645,125.4048,25.75,89,79,1.82,PH,1722866719
29,afaahiti,-17.75,-149.2833,20.93,77,89,5.23,PF,1722866720
30,dudinka,69.4058,86.1778,11.8,57,0,8.66,RU,1722866667
31,margaret river,-33.95,115.0667,15.78,86,59,7.63,AU,1722866722
32,yellowknife,62.456,-114.3525,13.29,88,75,3.6,CA,1722866723
33,bhamo,24.2667,97.2333,24.39,99,100,0.48,MM,1722866724
34,weyburn,49.6668,-103.8511,14.12,77,100,5.66,CA,1722866725
35,thompson,55.7435,-97.8558,12.09,76,20,1.03,CA,1722866726
36,olonkinbyen,70.9221,-8.7187,6.18,94,100,2.22,SJ,1722866727
37,klyuchi,52.2667,79.1667,21.24,51,83,2.73,RU,1722866728
38,sitka,57.0531,-135.33,14.94,77,20,0.0,US,1722866729
39,wailua homesteads,22.0669,-159.378,23.75,86,20,6.17,US,1722866730
40,fort bragg,35.139,-79.006,27.91,85,40,1.54,US,1722866516
41,suncho corral,-27.9336,-63.4294,17.6,61,0,2.44,AR,1722866732
42,mareeba,-17.0,145.4333,17.4,88,4,1.09,AU,1722866734
43,west island,-12.1568,96.8225,25.99,69,74,4.63,CC,1722866735
44,constantia,44.1833,28.65,27.61,49,100,4.42,RO,1722866736
45,dwarka,22.2394,68.9678,28.18,86,100,8.62,IN,1722866738
46,selfoss,63.9331,-20.9971,14.47,90,100,1.87,IS,1722866739
47,kostroma,57.7708,40.9344,22.34,63,34,1.89,RU,1722866740
48,tsiombe,-25.3,45.4833,26.36,34,22,2.74,MG,1722866741
49,invercargill,-46.4,168.35,3.34,91,59,1.34,NZ,1722866742
50,iqaluit,63.7506,-68.5145,5.85,93,100,1.54,CA,1722866743
51,porto novo,6.4965,2.6036,28.9,64,100,5.6,BJ,1722866744
52,la passe,45.5549,-0.8967,30.23,56,0,4.9,FR,1722866733
53,grand falls-windsor,48.9332,-55.6649,18.59,97,100,1.35,CA,1722866484
54,rio grande,-32.035,-52.0986,17.06,93,81,6.03,BR,1722866747
55,stanley,54.868,-1.6985,22.98,71,40,8.75,GB,1722866552
56,hadibu,12.65,54.0333,26.52,75,100,7.79,YE,1722866578
57,enewetak,11.3474,162.3373,28.8,75,96,2.41,MH,1722866687
58,grande prairie,55.1667,-118.8027,12.1,94,100,2.06,CA,1722866751
59,coquimbo,-29.9533,-71.3436,12.77,76,0,4.63,CL,1722866459
60,al kharijah,25.4514,30.5464,42.04,11,25,4.97,EG,1722866753
61,bumba,2.1833,22.4667,31.69,44,98,0.89,CD,1722866755
62,wake village,33.4268,-94.1063,29.3,71,0,2.06,US,1722866756
63,santarem,-2.4431,-54.7083,31.07,66,0,6.69,BR,1722866757
64,haiku-pauwela,20.9219,-156.3051,22.92,81,20,3.6,US,1722866758
65,utrik,11.2278,169.8474,28.42,79,100,7.27,MH,1722866759
66,vorgashor,67.5833,63.95,16.22,45,6,3.87,RU,1722866542
67,santa terezinha,-29.9002,-50.0904,17.77,95,74,0.85,BR,1722866761
68,bubaque,11.2833,-15.8333,26.32,82,100,4.61,GW,1722866492
69,hengchun,22.0042,120.7439,29.75,73,98,0.89,TW,1722866763
70,saipan,15.1355,145.701,27.39,83,0,2.57,MP,1722866764
71,minas de marcona,-15.2119,-75.1103,12.11,77,52,5.75,PE,1722866765
72,kolonia town,6.964,158.206,29.08,74,76,3.65,FM,1722866766
73,cordeiro,-22.0286,-42.3608,24.83,52,0,2.45,BR,1722866767
74,grantham,52.9115,-0.6418,24.12,72,75,7.72,GB,1722866769
75,aykhal,66.0,111.5,9.51,91,17,7.48,RU,1722866770
76,hawaiian paradise park,19.5933,-154.9731,21.61,96,0,3.09,US,1722866771
77,mount pearl,47.5166,-52.7813,23.19,88,75,7.72,CA,1722866521
78,puerto ayora,-0.7393,-90.3518,20.98,81,95,4.17,EC,1722866774
79,aleksandrov gay,50.147,48.5704,33.27,25,100,8.66,RU,1722866775
80,college,64.8569,-147.8028,13.03,93,75,2.06,US,1722866776
81,ribeira grande,38.5167,-28.7,27.22,78,40,5.66,PT,1722866777
82,nar'yan-mar,67.6713,53.087,16.05,48,1,7.43,RU,1722866778
83,hermanus,-34.4187,19.2345,16.56,70,38,8.79,ZA,1722866779
84,luderitz,-26.6481,15.1594,19.06,42,0,8.61,NA,1722866560
85,salinopolis,-0.6136,-47.3561,29.56,63,15,6.31,BR,1722866781
86,nizhnesortymskiy,62.4397,71.7603,14.29,79,100,7.78,RU,1722866669
87,ballina,-28.8667,153.5667,16.95,79,100,5.52,AU,1722866783
88,ola,59.5833,151.2833,11.87,88,100,1.61,RU,1722866784
89,puerto deseado,-47.7503,-65.8938,4.25,86,100,7.55,AR,1722866761
90,port mathurin,-19.6833,63.4167,22.67,72,6,6.37,MU,1722866568
91,tual,-5.6667,132.75,25.33,89,100,9.35,ID,1722866787
92,bethel,41.3712,-73.414,27.99,77,2,0.89,US,1722866520
93,anadyr,64.75,177.4833,2.28,93,75,6.0,RU,1722866789
94,susuman,62.7833,148.1667,12.53,45,100,2.62,RU,1722866790
95,mount gambier,-37.8333,140.7667,5.04,100,36,2.18,AU,1722866791
96,isafjordur,66.0755,-23.124,13.02,71,75,7.72,IS,1722866792
97,weno,7.4515,151.8468,28.94,74,39,4.33,FM,1722866676
98,uturoa,-16.7333,-151.4333,25.27,77,100,6.17,PF,1722866547
99,cartagena,10.3997,-75.5144,30.79,84,40,2.06,CO,1722866588
100,bilibino,68.0546,166.4372,2.0,77,99,2.87,RU,1722866796
101,badger,64.8,-147.5333,12.98,93,75,2.06,US,1722866797
102,cidreira,-30.1811,-50.2056,17.87,95,97,1.27,BR,1722866627
103,pacific grove,36.6177,-121.9166,14.12,98,100,3.58,US,1722866800
104,punta arenas,-53.15,-70.9167,-0.99,86,0,3.6,CL,1722866308
105,ponta delgada,37.7333,-25.6667,25.4,88,20,4.12,PT,1722866802
106,yangambi,0.8102,24.4336,31.09,47,94,0.99,CD,1722866803
107,codajas,-3.8367,-62.0569,33.85,31,96,2.34,BR,1722866806
108,thinadhoo,0.5333,72.9333,28.62,70,100,2.01,MV,1722866807
109,winnemucca,40.973,-117.7357,18.03,42,0,0.0,US,1722866808
110,longyearbyen,78.2186,15.6401,10.91,82,20,5.66,SJ,1722866809
111,san martin,-33.081,-68.4681,13.98,34,0,3.46,AR,1722866810
112,lompoc,34.6391,-120.4579,13.08,96,100,2.06,US,1722866811
113,daleville,31.3102,-85.713,28.11,76,0,7.72,US,1722866812
114,san antonio de pale,-1.4014,5.6325,22.23,72,95,4.12,GQ,1722866813
115,mandalgovi,45.7625,106.2708,16.82,65,3,3.22,MN,1722866814
116,north bay,46.3168,-79.4663,17.19,87,66,2.77,CA,1722866815
117,sumbe,-11.2061,13.8437,22.44,76,24,3.84,AO,1722866816
118,ochakiv,46.6128,31.5498,26.57,52,61,3.89,UA,1722866817
119,olyokminsk,60.3736,120.4264,12.55,96,100,1.47,RU,1722866818
120,bamboo flat,11.7,92.7167,26.05,89,75,3.6,IN,1722866820
121,choibalsan,48.0667,114.5,16.6,78,85,3.74,MN,1722866821
122,portland,45.5234,-122.6762,16.45,85,20,2.57,US,1722866760
123,barmer,25.75,71.3833,25.47,89,100,7.81,IN,1722866823
124,kodiak,57.79,-152.4072,11.73,100,100,2.06,US,1722866824
125,yanchep,-31.55,115.6833,13.45,80,0,3.43,AU,1722866825
126,flying fish cove,-10.4217,105.6791,24.82,83,75,5.14,CX,1722866826
127,matane,48.8286,-67.522,16.72,62,62,4.91,CA,1722866827
128,petropavlovsk-kamchatsky,53.0452,158.6483,9.35,90,100,0.07,RU,1722866828
129,papatowai,-46.5619,169.4708,5.17,87,10,3.07,NZ,1722866830
130,amga,60.8953,131.9608,12.79,96,100,4.39,RU,1722866832
131,berezovyy,51.6667,135.7,16.84,85,100,1.76,RU,1722866725
132,gizo,-8.103,156.8419,26.66,83,100,6.68,SB,1722866834
133,palikir - national government center,6.9248,158.1611,28.5,74,71,3.76,FM,1722866835
134,acapulco de juarez,16.8634,-99.8901,26.9,78,75,2.57,MX,1722866764
135,quelimane,-17.8786,36.8883,27.38,51,0,4.1,MZ,1722866805
136,bulungu,-4.55,18.6,38.21,20,95,1.57,CD,1722866839
137,kharovsk,59.9642,40.1912,18.32,84,100,2.95,RU,1722866840
138,betio village,1.358,172.9211,28.64,66,96,5.47,KI,1722866841
139,hithadhoo,-0.6,73.0833,29.03,75,100,5.15,MV,1722866842
140,east london,-33.0153,27.9116,18.52,39,0,5.66,ZA,1722866698
141,colonia,50.9333,6.95,28.31,50,20,2.57,DE,1722866844
142,an nuhud,12.7,28.4333,31.78,42,86,5.18,SD,1722866845
143,labytnangi,66.6572,66.4183,14.67,48,100,6.32,RU,1722866586
144,peace river,56.2501,-117.286,13.7,100,75,2.57,CA,1722866847
145,cozumel,20.5083,-86.9458,30.53,78,18,3.53,MX,1722866403
146,lihue,21.9789,-159.3672,24.09,89,20,6.17,US,1722866849
147,callao,-12.0667,-77.15,18.01,82,100,1.54,PE,1722866850
148,port elizabeth,-33.918,25.5701,17.83,56,0,3.13,ZA,1722866851
149,el fasher,13.6279,25.3494,29.67,48,76,4.25,SD,1722866852
150,masterton,-40.9597,175.6575,3.39,93,0,1.23,NZ,1722866853
151,saint-pierre,-21.3393,55.4781,22.82,68,20,5.14,RE,1722866789
152,daru,-9.0763,143.2092,24.2,90,96,6.92,PG,1722866855
153,kidal,18.4411,1.4078,37.57,28,83,4.7,ML,1722866856
154,birobidzhan,48.8,132.95,19.29,100,100,2.6,RU,1722866857
155,sabha,27.0377,14.4283,41.34,8,0,4.42,LY,1722866858
156,bayanhongor,46.7167,100.1167,13.58,41,2,2.74,MN,1722866859
157,semera,11.501,41.201,35.08,32,80,3.11,ET,1722866860
158,bijie,27.3125,105.2942,20.15,92,90,0.92,CN,1722866861
159,bonthe,7.5264,-12.505,26.98,78,89,4.09,SL,1722866863
160,sisimiut,66.9395,-53.6735,7.76,79,98,2.92,GL,1722866864
161,kailua-kona,19.6406,-155.9956,23.49,91,100,0.77,US,1722866813
162,tura,25.5198,90.2201,24.65,97,100,2.42,IN,1722866866
163,quellon,-43.1167,-73.6167,8.12,93,100,5.82,CL,1722866867
164,tionk essil,12.7856,-16.5217,27.8,78,100,4.8,SN,1722866868
165,san diego country estates,33.0067,-116.7836,26.68,56,0,0.0,US,1722866869
166,severo-yeniseyskiy,60.3725,93.0408,16.69,70,84,1.8,RU,1722866870
167,guerrero negro,27.9769,-114.0611,20.56,84,100,2.71,MX,1722866871
168,srivardhan,18.0333,73.0167,26.74,88,8,4.72,IN,1722866872
169,iskateley,67.6803,53.1512,16.1,48,2,7.45,RU,1722866873
170,rabaul,-4.1967,152.1721,25.63,84,6,4.85,PG,1722866875
171,kone,-21.0595,164.8658,15.26,77,3,1.87,NC,1722866800
172,vila do maio,15.1333,-23.2167,31.44,80,15,2.99,CV,1722866877
173,egilsstadir,65.2653,-14.3948,10.15,97,100,4.42,IS,1722866878
174,temiskaming shores,47.4938,-79.7153,17.73,47,54,1.68,CA,1722866879
175,st. john's,47.5649,-52.7093,23.66,88,75,7.72,CA,1722866627
176,filey,54.21,-0.2892,24.6,70,11,6.55,GB,1722866881
177,howard springs,-12.497,131.047,22.95,90,6,1.26,AU,1722866882
178,buenos aires,-34.6132,-58.3772,14.44,82,100,10.73,AR,1722866016
179,rongelap,11.1635,166.8941,28.78,78,100,6.86,MH,1722866884
180,new norfolk,-42.7826,147.0587,11.07,70,100,3.28,AU,1722866757
181,kourou,5.1552,-52.6478,31.03,55,2,3.97,GF,1722866719
182,ndele,8.4109,20.6473,26.68,73,99,2.12,CF,1722866888
183,ancud,-41.8697,-73.8203,7.78,89,100,8.51,CL,1722866885
184,metlili chaamba,32.2667,3.6333,38.7,13,4,0.38,DZ,1722866890
185,coaldale,49.7167,-112.6185,15.08,84,3,1.64,CA,1722866891
186,ghat,24.9647,10.1728,41.73,7,0,4.57,LY,1722866892
187,al ghayzah,16.2079,52.176,26.52,81,14,6.1,YE,1722866894
188,yelovo,57.0538,54.9207,20.24,81,99,2.81,RU,1722866895
189,nova sintra,14.8667,-24.7167,27.24,71,13,1.25,CV,1722866896
190,yeppoon,-23.1333,150.7333,12.88,78,98,3.64,AU,1722866897
191,qaqortoq,60.7167,-46.0333,8.53,71,100,1.77,GL,1722866898
192,algona,43.07,-94.233,24.53,100,0,5.14,US,1722866899
193,polyarnyy,69.1989,33.4478,15.52,58,0,5.02,RU,1722866365
194,urumqi,43.801,87.6005,33.53,17,20,2.0,CN,1722866901
195,shakawe,-18.3667,21.85,32.51,7,0,2.82,BW,1722866902
196,pontiac,42.6389,-83.2911,27.39,79,75,3.6,US,1722866895
197,kievka,50.2619,71.5514,24.96,40,70,3.76,KZ,1722866904
198,levuka,50.1834,-105.4011,15.79,59,100,3.37,CA,1722866905
199,las khorey,11.1595,48.1967,33.38,55,95,2.77,SO,1722866906
200,whitehorse,60.7161,-135.0538,8.78,87,20,1.54,CA,1722866652
201,fort st. john,56.2499,-120.8529,10.94,93,75,3.09,CA,1722866909
202,fortaleza,-3.7227,-38.5247,30.12,71,75,10.29,BR,1722866678
203,richards bay,-28.783,32.0377,19.1,62,100,3.99,ZA,1722866765
204,hammerfest,70.6634,23.6821,24.25,43,0,3.6,NO,1722866912
205,san patricio,28.017,-97.5169,31.03,71,0,0.86,US,1722866914
206,bikenibeu village,1.3673,173.1241,28.58,66,97,5.46,KI,1722866915
207,balqash,46.8481,74.995,27.78,35,100,2.66,KZ,1722866831
208,bereznik,62.8551,42.7072,17.72,75,100,1.82,RU,1722866917
209,realeza,-25.7689,-53.5325,25.23,42,44,3.06,BR,1722866722
210,kawalu,-7.3817,108.2082,20.02,99,33,0.36,ID,1722866919
211,napier,-39.4833,176.9167,2.93,90,85,2.6,NZ,1722866920
212,atafu village,-8.5421,-172.5159,27.84,79,59,2.67,TK,1722866921
213,howrah,22.5892,88.3103,30.0,89,75,4.63,IN,1722866922
214,novodvinsk,64.4165,40.8122,17.86,68,100,3.41,RU,1722866923
215,talnakh,69.4865,88.3972,13.97,49,0,5.7,RU,1722866924
216,port lincoln,-34.7333,135.8667,10.03,82,36,3.08,AU,1722866925
217,kostanay,53.1667,63.5833,25.16,57,0,2.0,KZ,1722866696
218,cestos city,5.46,-9.5828,26.99,73,83,3.9,LR,1722866927
219,vorkuta,67.5,64.0,16.65,46,6,3.43,RU,1722866928
220,gaspe,48.8334,-64.4819,21.35,62,100,0.38,CA,1722866930
221,brookings,44.3114,-96.7984,22.19,97,100,4.63,US,1722866931
222,gadzhiyevo,69.2551,33.3362,14.85,61,0,5.46,RU,1722866662
223,the dalles,45.5946,-121.1787,21.5,59,0,6.17,US,1722866689
224,trujillo,-8.116,-79.03,16.98,88,100,3.6,PE,1722866601
225,tralee,52.2704,-9.7026,17.14,77,75,3.6,IE,1722866936
226,zhangjiakou,40.81,114.8794,23.2,55,0,1.86,CN,1722866937
227,korkuteli,37.065,30.1957,24.7,28,95,2.47,TR,1722866938
228,lata,40.1629,-8.3327,30.27,41,0,5.76,PT,1722866939
229,sint-laureins,51.242,3.5244,26.79,60,0,3.72,BE,1722866940
230,mossel bay,-34.1831,22.146,17.96,47,15,4.84,ZA,1722866488
231,viru,-8.4167,-78.75,20.13,64,20,1.44,PE,1722866898
232,angaur state,6.906,134.13,28.65,74,95,3.46,PW,1722866943
233,jacksonville,30.3322,-81.6556,26.16,94,100,13.89,US,1722866944
234,onguday,50.75,86.15,14.68,84,74,1.2,RU,1722866945
235,ta`u,-14.2336,-169.5144,25.81,75,4,1.43,AS,1722866946
236,kingston,17.997,-76.7936,31.76,66,20,3.09,JM,1722866088
237,ataq,14.5377,46.8319,32.38,32,93,3.15,YE,1722866948
238,sinan,34.8262,126.1086,25.31,88,99,2.43,KR,1722866949
239,walvis bay,-22.9575,14.5053,23.53,38,0,3.6,NA,1722866721
240,chonchi,-42.6128,-73.8092,7.84,95,100,4.52,CL,1722866599
241,mount isa,-20.7333,139.5,19.87,64,20,5.14,AU,1722866953
242,wakkanai,45.4094,141.6739,16.6,95,100,5.73,JP,1722866924
243,kadnikov,59.5022,40.338,20.71,64,74,3.19,RU,1722866955
244,ilulissat,69.2167,-51.1,6.48,63,3,0.82,GL,1722866562
245,tanjung selor,2.8372,117.3642,24.21,97,63,0.62,ID,1722866957
246,codrington,-38.2667,141.9667,5.54,85,12,3.79,AU,1722866543
247,georgetown,5.4112,100.3354,29.97,70,20,1.03,MY,1722866959
248,timberwood park,29.7058,-98.4783,28.59,73,20,1.34,US,1722866960
249,sao jose da coroa grande,-8.8978,-35.1478,26.34,61,8,6.01,BR,1722866961
250,ulsteinvik,62.3432,5.8487,21.5,76,100,2.12,NO,1722866962
251,gilgit,35.9221,74.3087,32.14,38,83,2.93,PK,1722866703
252,barreiro do jaiba,-15.6167,-43.6,27.02,39,1,4.25,BR,1722866832
253,vilyuchinsk,52.9306,158.4028,9.86,90,99,0.39,RU,1722866965
254,naze,28.3667,129.4833,28.51,86,45,4.81,JP,1722866639
255,vila velha,-20.3297,-40.2925,26.97,86,75,3.6,BR,1722866856
256,slave lake,55.2834,-114.769,12.99,100,100,0.0,CA,1722866702
257,ryotsu-minato,38.0833,138.4333,23.46,90,100,2.84,JP,1722866970
258,same,-4.0667,37.7333,28.25,28,74,4.53,TZ,1722866892
259,mejit,10.2753,170.8646,28.27,80,100,6.36,MH,1722866518
260,arraial do cabo,-22.9661,-42.0278,26.92,65,0,7.72,BR,1722866487
261,port alfred,-33.5906,26.891,16.77,50,0,3.13,ZA,1722866590
262,lebu,-37.6167,-73.65,9.54,80,100,2.76,CL,1722866700
263,lake havasu city,34.4839,-114.3224,38.03,30,45,1.34,US,1722866977
264,saldanha,-33.0117,17.9442,15.03,64,7,4.91,ZA,1722866587
265,kondoa,-4.9,35.7833,28.23,16,1,2.65,TZ,1722866979
266,la spezia,44.1105,9.8434,32.82,63,41,2.24,IT,1722866980
267,ubari,26.5921,12.7805,42.34,7,0,5.57,LY,1722866981
268,port shepstone,-30.7414,30.455,17.72,56,1,3.57,ZA,1722866982
269,bardai,11.65,7.2333,26.23,70,100,5.22,NG,1722866983
270,caleta de carquin,-11.0925,-77.6267,17.54,79,41,4.01,PE,1722866984
271,pandan,14.0453,124.1694,27.08,84,100,2.23,PH,1722866836
272,brisas de zicatela,15.8369,-97.0419,25.29,88,75,3.09,MX,1722866986
273,coahuayana de hidalgo,18.7,-103.6583,25.68,83,96,1.3,MX,1722866500
274,fale old settlement,-9.3852,-171.2468,27.86,78,100,4.85,TK,1722866989
275,cabaiguan,22.0789,-79.4992,27.42,82,94,3.37,CU,1722866990
276,griffith,41.5284,-87.4237,23.95,94,100,5.14,US,1722866991
277,port moody,49.283,-122.8526,18.37,76,0,0.17,CA,1722866992
278,amlame,7.4667,0.9,27.02,73,94,2.04,TG,1722866994
279,mokpo,34.7936,126.3886,26.49,89,96,2.79,KR,1722866995
280,beecher,43.09,-83.6944,26.05,79,0,2.06,US,1722866996
281,qarauyl,48.9451,79.255,24.52,35,13,6.8,KZ,1722866632
282,juan griego,11.0817,-63.9655,30.73,62,59,4.36,VE,1722866998
283,shingu,33.7333,135.9833,25.78,93,97,1.36,JP,1722866569
284,ngereklmadel,7.4883,134.4856,27.92,77,94,3.31,PW,1722867000
285,novaya igirma,57.1334,103.9112,16.22,62,5,0.54,RU,1722867001
286,palmer,42.1584,-72.3287,27.65,69,20,0.45,US,1722867002
287,ovalle,-30.5983,-71.2003,13.74,63,2,0.49,CL,1722866953
288,kavieng,-2.5744,150.7967,27.23,78,100,3.74,PG,1722867005
289,cadale,2.7603,46.3222,25.89,72,28,9.72,SO,1722867006
290,alofi,-19.0595,-169.9187,21.94,94,75,3.09,NU,1722866489
291,diego de almagro,-26.3667,-70.05,16.59,40,0,1.46,CL,1722866851
292,kokopo,-4.352,152.2633,24.45,89,6,4.3,PG,1722867009
293,rio cuarto,-33.1307,-64.3499,19.71,36,0,7.2,AR,1722866840
294,keflavik,64.0049,-22.5624,13.24,94,75,3.09,IS,1722867011
295,mendaha,-1.0333,103.5833,25.41,83,9,1.42,ID,1722867012
296,essaouira,31.5125,-9.77,21.67,84,2,7.43,MA,1722867013
297,novo aripuana,-5.1206,-60.3797,33.3,31,9,2.07,BR,1722867015
298,gerash,27.6652,54.1371,38.04,29,91,5.37,IR,1722866898
299,rudnichnyy,59.617,52.4703,18.16,92,92,2.09,RU,1722867017
300,praia da vitoria,38.7333,-27.0667,28.14,69,40,4.17,PT,1722866657
301,kununurra,-15.7667,128.7333,21.99,64,75,0.0,AU,1722866447
302,happy valley-goose bay,53.3168,-60.3315,21.95,45,75,2.69,CA,1722867020
303,prince rupert,54.3161,-130.3201,12.05,100,100,1.03,CA,1722867021
304,gandajika,-6.75,23.95,35.5,11,10,1.21,CD,1722866870
305,nemuro,43.3236,145.575,16.72,100,100,1.85,JP,1722866730
306,lautoka,-17.6167,177.4667,17.92,77,40,2.06,FJ,1722867024
307,cockburn town,21.4612,-71.1419,28.07,82,0,8.29,TC,1722866505
308,tibu,8.639,-72.7358,29.55,64,95,1.19,CO,1722866833
309,bodo,67.28,14.405,22.02,67,0,3.6,NO,1722867027
310,kamiiso,41.8167,140.65,20.36,95,66,1.11,JP,1722867028
311,jayapura,-2.5333,140.7,25.66,93,61,2.5,ID,1722866867
312,wuhai,39.6647,106.8122,28.93,38,88,6.08,CN,1722867030
313,cabo san lucas,22.8909,-109.9124,28.12,79,26,3.58,MX,1722867002
314,qaisumah,28.3112,46.1273,41.98,8,0,7.2,SA,1722867032
315,roxas,11.5853,122.7511,24.52,86,98,2.11,PH,1722867033
316,guanare,9.0418,-69.7421,27.28,74,100,0.52,VE,1722866869
317,nambucca heads,-30.65,153.0,17.0,88,100,1.61,AU,1722867035
318,macas,-2.3167,-78.1167,21.86,88,75,2.06,EC,1722866930
319,port sudan,19.6175,37.2164,35.25,52,65,6.92,SD,1722867038
320,fort mcmurray,56.7268,-111.381,15.3,56,99,1.31,CA,1722867039
321,viedma,-40.8135,-62.9967,13.52,40,100,6.45,AR,1722866443
322,porto velho,-8.7619,-63.9039,31.03,51,0,2.06,BR,1722866644
323,gribanovskiy,51.4579,41.9764,25.43,47,98,2.83,RU,1722866887
324,urengoy,65.9667,78.3667,14.25,55,100,3.78,RU,1722867043
325,revda,56.801,59.9303,15.72,96,100,3.24,RU,1722867044
326,bodaybo,57.8506,114.1933,15.51,93,100,0.64,RU,1722867045
327,emerald,-23.5333,148.1667,14.63,78,0,5.59,AU,1722867046
328,bahia blanca,-38.7196,-62.2724,14.35,34,42,3.03,AR,1722866975
329,dzhambeyty,50.2536,52.595,34.12,17,72,3.32,KZ,1722867048
330,remire-montjoly,4.9167,-52.2667,31.02,62,40,3.6,GF,1722867049
331,erenhot,43.6475,111.9767,27.18,24,1,3.51,CN,1722866767
332,mugia,43.1041,-9.2179,26.76,88,47,3.44,ES,1722867051
333,pocone,-16.2567,-56.6228,34.1,20,0,5.0,BR,1722867052
334,pisco,-13.7,-76.2167,16.12,82,100,1.54,PE,1722867053
335,port saint john's,-31.6229,29.5448,17.51,52,0,3.31,ZA,1722866738
336,richmond,37.5538,-77.4603,26.62,90,100,1.54,US,1722866762
337,gopalpur,19.2667,84.9167,29.25,80,100,3.18,IN,1722867057
338,nuuk,64.1835,-51.7216,11.34,66,75,1.54,GL,1722867058
339,ormara,25.2088,64.6357,28.59,83,99,3.06,PK,1722867059
340,margate,51.3813,1.3862,22.61,68,7,1.34,GB,1722866656
341,ciacova,45.5081,21.1286,31.28,26,100,4.93,RO,1722867061
342,anna regina,7.2644,-58.5077,26.91,84,100,3.38,GY,1722867063
343,bairnsdale,-37.8333,147.6167,5.59,93,18,2.26,AU,1722867064
344,aqsay,51.1678,52.995,32.25,22,100,3.22,KZ,1722867065
345,colares,38.7992,-9.4469,29.63,54,20,11.32,PT,1722867066
346,aripuana,-9.1667,-60.6333,32.74,26,0,2.7,BR,1722867068
347,al artawiyah,26.5053,45.3444,39.91,8,2,9.51,SA,1722867069
348,christchurch,-43.5333,172.6333,2.45,100,100,1.54,NZ,1722866406
349,old saybrook,41.2918,-72.3762,28.03,80,3,1.77,US,1722867071
350,fortuna,40.5982,-124.1573,14.64,98,100,2.06,US,1722867072
351,timimoun,29.2639,0.231,46.69,6,0,2.52,DZ,1722867073
352,ciudad lazaro cardenas,17.9583,-102.2,26.34,87,98,1.62,MX,1722866533
353,pike road,32.2843,-86.103,29.03,43,0,5.91,US,1722866953
354,inongo,-1.95,18.2667,25.15,64,100,1.13,CD,1722866870
355,cotonou,6.3654,2.4183,25.71,76,100,6.33,BJ,1722866883
356,mogocha,53.7333,119.7667,13.18,93,3,0.97,RU,1722867078
357,garachico,28.7781,-17.7646,24.16,61,20,5.14,ES,1722867079
358,kuroishi,40.6389,140.5922,23.64,95,68,0.43,JP,1722867080
359,tuban,-6.8976,112.0649,25.67,75,8,2.77,ID,1722867081
360,nagato,34.3833,131.2,27.89,87,93,3.46,JP,1722867082
361,vadso,70.0744,29.7487,15.49,72,6,6.69,NO,1722866651
362,san pedro pochutla,15.7333,-96.4667,25.95,86,38,1.36,MX,1722866844
363,chetumal,18.5,-88.3,27.03,89,40,3.09,MX,1722866889
364,linxia chengguanzhen,35.6003,103.2064,19.65,69,18,1.35,CN,1722867088
365,saint-philippe,-21.3585,55.7679,22.77,80,62,3.01,RE,1722867089
366,khandyga,62.6667,135.6,13.69,83,100,0.63,RU,1722867090
367,bucerias,20.75,-105.3333,28.32,94,40,1.54,MX,1722867091
368,tazovsky,67.4667,78.7,12.44,55,99,5.38,RU,1722867092
369,sungai penuh,-2.0833,101.3833,18.63,97,88,1.89,ID,1722867093
370,seosan,36.7817,126.4522,26.41,88,100,1.14,KR,1722867094
371,jiazi,22.8779,116.067,27.95,87,15,0.68,CN,1722867095
372,wimereux,50.7696,1.6114,22.48,70,0,3.9,FR,1722867096
373,ilembula,-8.9,34.5833,27.52,17,0,5.86,TZ,1722866884
374,boguchany,58.3814,97.4531,18.02,67,7,1.39,RU,1722867098
375,san luis de la loma,17.2706,-100.8939,26.36,78,100,1.7,MX,1722867099
376,khanty-mansiysk,61.0042,69.0019,25.06,41,0,0.0,RU,1722867100
377,kalampaka,39.7044,21.6269,30.6,40,90,2.8,GR,1722867101
378,yemetsk,63.4721,41.7941,14.84,84,97,3.09,RU,1722867102
379,hamilton,39.1834,-84.5333,29.25,76,0,3.09,US,1722866871
380,port macquarie,-31.4333,152.9167,13.93,87,100,0.89,AU,1722866769
381,kenai,60.5544,-151.2583,8.05,100,0,1.54,US,1722867106
382,guerrero,17.6667,-100.0,20.0,87,100,0.48,MX,1722867107
383,paraty,-23.2178,-44.7131,32.2,31,0,1.47,BR,1722867108
384,ouallam,14.3188,2.0866,34.09,44,9,4.56,NE,1722867109
385,kushiro,42.975,144.3747,18.78,99,100,2.61,JP,1722867110
386,monteagudo,-19.8167,-63.9833,24.14,50,0,2.5,BO,1722867111
387,florence,43.7667,11.25,38.03,29,0,2.06,IT,1722867112
388,elesbao veloso,-6.2019,-42.1403,32.08,31,0,4.14,BR,1722867113
389,nizhneudinsk,54.9076,99.0276,17.58,83,100,0.79,RU,1722867114
390,valparaiso,-33.0393,-71.6273,13.33,78,100,4.63,CL,1722866997
391,giarre,37.7269,15.1877,30.85,64,32,3.32,IT,1722867116
392,tsawwassen,49.018,-123.0817,18.16,93,0,4.57,CA,1722867117
393,ar raqqah,35.95,39.0167,41.25,15,0,10.5,SY,1722867118
394,al hufuf,25.3646,49.5653,44.19,6,0,8.75,SA,1722867119
395,north platte,41.1239,-100.7654,26.15,54,0,3.09,US,1722867120
396,umm al quwain city,25.5647,55.5552,39.01,72,98,5.4,AE,1722867121
397,kharan,28.5833,65.4167,36.84,32,100,6.17,PK,1722867123
398,kisvarda,48.2167,22.0833,28.48,34,100,2.13,HU,1722867124
399,san blas,21.5167,-105.2667,27.94,79,28,0.77,MX,1722867125
400,altay,47.8667,88.1167,22.44,27,100,3.19,CN,1722867126
401,bandar lampung,-5.4254,105.258,22.87,94,25,0.8,ID,1722867127
402,touros,-5.1989,-35.4608,27.72,64,24,8.21,BR,1722867128
403,vegreville,53.5001,-112.0518,14.22,95,100,3.87,CA,1722867129
404,tomatlan,19.9333,-105.25,24.15,95,100,1.39,MX,1722867130
405,hulan ergi,47.2042,123.6333,25.28,63,96,2.84,CN,1722867131
406,sao raimundo das mangabeiras,-7.0219,-45.4811,32.26,24,0,5.07,BR,1722867132
407,kashgar,39.4547,75.9797,31.13,31,50,4.06,CN,1722867133
408,puerto lleras,3.0223,-73.4044,22.79,98,100,0.65,CO,1722867134
409,muang khong,14.1167,105.85,24.85,91,9,0.87,LA,1722867135
410,iquique,-20.2208,-70.1431,16.02,74,23,2.94,CL,1722867082
411,penticton,49.4806,-119.5858,21.52,59,0,0.29,CA,1722867137
412,nelson bay,-32.7167,152.15,12.27,95,100,0.45,AU,1722867138
413,kargasok,59.0556,80.8572,19.92,78,38,1.93,RU,1722867139
414,fada,7.25,4.0667,28.64,59,100,2.27,NG,1722866650
415,cholpon-ata,42.6494,77.0823,24.03,70,90,2.25,KG,1722867142
416,kolonia,50.9333,6.95,28.31,50,20,2.57,DE,1722867143
417,port moresby,-9.4431,147.1797,24.68,83,40,5.14,PG,1722867144
418,pangody,65.85,74.4859,14.9,48,100,5.37,RU,1722867145
419,parkes,-33.1333,148.1833,8.53,77,89,1.74,AU,1722867146
420,kapuskasing,49.4169,-82.4331,16.05,63,40,2.57,CA,1722866684
421,makubetsu,45.3714,141.8211,16.25,96,100,4.53,JP,1722867148
422,alaghsas,17.0187,8.0168,33.94,46,0,5.14,NE,1722866739
423,dunedin,-45.8742,170.5036,6.0,79,38,2.5,NZ,1722867150
424,aasiaat,68.7098,-52.8699,2.68,90,86,2.23,GL,1722867151
425,okhotsk,59.3833,143.3,12.37,83,100,3.92,RU,1722867152
426,ende,-8.8432,121.6623,22.79,91,100,1.91,ID,1722867153
427,nguigmi,14.2495,13.1092,26.42,71,100,5.24,NE,1722867154
428,champerico,14.3,-91.9167,28.3,79,96,1.23,GT,1722867155
429,riosucio,5.4216,-75.7032,17.51,81,94,1.0,CO,1722867156
430,talakan,50.3167,130.3667,19.79,99,100,2.59,RU,1722867158
431,kamaishi,39.2667,141.8833,23.0,94,7,1.01,JP,1722867159
432,ishigaki,24.3448,124.1572,29.41,79,89,5.64,JP,1722866905
433,barkly west,-28.5354,24.5215,15.43,20,0,3.11,ZA,1722866887
434,pemangkat,1.1667,108.9667,27.57,75,13,1.58,ID,1722866791
435,myeik,12.4333,98.6,26.12,89,75,2.42,MM,1722867164
436,callaway,30.153,-85.5699,28.44,78,20,7.72,US,1722867165
437,bougouni,11.417,-7.479,26.16,82,99,3.59,ML,1722867166
438,jharia,23.75,86.4,30.2,68,100,2.25,IN,1722867167
439,luganville,-15.5333,167.1667,22.28,69,37,3.8,VU,1722867168
440,leua,48.2156,18.6071,19.47,69,100,4.84,SK,1722867169
441,moyale,3.5167,39.0584,26.92,40,92,5.23,KE,1722867170
442,tutong,4.8,114.65,27.05,81,100,1.29,BN,1722867171
443,mar del plata,-38.0023,-57.5575,13.07,77,99,4.02,AR,1722866867
444,lubao,14.9167,120.55,27.04,88,100,1.05,PH,1722867173
445,atherton,53.5237,-2.4935,24.47,70,99,1.79,GB,1722867174
446,calabozo,8.9242,-67.4293,26.77,83,94,1.43,VE,1722867175
447,balykchy,42.4557,76.1861,24.12,49,79,1.12,KG,1722867176
448,tangalle,6.024,80.7911,29.09,79,99,5.82,LK,1722867077
449,yulinshi,38.2906,109.7494,24.81,50,92,2.01,CN,1722867178
450,swift current,50.2834,-107.8014,17.46,78,100,3.3,CA,1722867179
451,ebon,4.582,168.6964,28.82,73,45,5.03,MH,1722867181
452,adrar,20.5022,-10.0711,38.23,24,2,5.91,MR,1722867182
453,wusong,30.95,117.7833,27.14,67,100,2.94,CN,1722867184
454,altamira,-3.2033,-52.2064,31.82,37,1,1.98,BR,1722867185
455,puerto santa,-8.9906,-78.6456,17.54,81,89,3.81,PE,1722867186
456,labrador city,52.9463,-66.9114,11.77,64,100,6.26,CA,1722867188
457,rikaze,29.25,88.8833,11.29,81,100,2.38,CN,1722867189
458,padang,-0.9492,100.3543,26.03,90,92,3.7,ID,1722867190
459,kebili,33.7044,8.969,38.61,13,0,2.08,TN,1722867191
460,gardez,33.5974,69.2259,27.0,39,0,2.08,AF,1722867192
461,sos'va,59.1766,61.8558,20.13,86,98,1.2,RU,1722867193
462,mhamid,29.82,-5.72,44.61,5,0,3.03,MA,1722867194
463,perth,-31.9333,115.8333,13.8,83,0,3.09,AU,1722867027
464,mizdah,31.4451,12.9801,37.81,13,0,4.44,LY,1722867196
465,nicoya,10.1483,-85.452,26.35,83,4,1.36,CR,1722867197
466,akureyri,65.6835,-18.0878,12.96,76,75,3.6,IS,1722867198
467,murzuq,25.9155,13.9184,41.3,8,0,3.76,LY,1722867199
468,sheregesh,52.9209,87.9869,13.33,99,100,1.98,RU,1722867200
469,qui nhon,13.7667,109.2333,27.3,85,86,3.23,VN,1722866701
470,mallawi,27.7314,30.8417,40.16,10,2,5.91,EG,1722867203
471,surskoye,54.4821,46.7214,22.02,55,100,1.53,RU,1722867204
472,kerikeri,-35.2268,173.9474,4.39,91,2,2.19,NZ,1722866723
473,merizo village,13.2658,144.6691,27.31,78,100,3.22,GU,1722867206
474,whittlesea,-32.1759,26.8244,15.44,17,0,6.11,ZA,1722867207
475,inarajan village,13.2736,144.7484,27.54,78,100,3.13,GU,1722867208
476,byron bay,-28.65,153.6167,16.07,83,98,4.97,AU,1722867209
477,islamorada,24.9243,-80.6278,30.0,90,100,6.44,US,1722867210
478,rudbar,30.15,62.6,40.56,11,8,2.43,AF,1722867211
479,olean,42.0776,-78.4297,25.38,77,0,2.06,US,1722867126
480,kambove,-10.8764,26.5969,29.43,12,5,2.38,CD,1722867213
481,brigantine,39.4101,-74.3646,29.55,72,0,0.0,US,1722867214
482,miandrivazo,-19.5167,45.4667,31.4,17,0,2.37,MG,1722867216
483,cill airne,52.05,-9.5167,17.03,77,75,3.6,IE,1722867217
484,nacala,-14.5428,40.6728,27.62,61,0,3.09,MZ,1722867218
485,ngaruawahia,-37.6674,175.1555,6.98,89,1,1.79,NZ,1722867219
486,anantapur,14.6833,77.6,31.98,48,100,6.89,IN,1722867220
487,smolyaninovo,43.2956,132.4675,19.7,84,100,1.23,RU,1722867221
488,goz beida,13.95,20.55,24.19,82,100,2.14,TD,1722867223
489,tillaberi,14.2117,1.4531,34.47,43,23,3.81,NE,1722866954
490,conceicao da barra,-18.5933,-39.7322,24.7,75,20,3.34,BR,1722867225
491,pingliang,35.5392,106.6861,22.37,81,1,1.8,CN,1722867226
492,neftcala,39.3742,49.2472,28.73,66,0,5.91,AZ,1722867227
493,nikolayevsk-on-amure,53.1406,140.73,15.02,73,100,1.6,RU,1722867228
494,lagunillas,10.1301,-71.2595,29.5,67,100,4.82,VE,1722867229
495,westport,41.1415,-73.3579,29.6,73,0,2.57,US,1722866715
496,xai-xai,-25.0519,33.6442,21.96,68,64,7.26,MZ,1722867232
497,guiratinga,-16.3494,-53.7583,30.06,23,0,4.98,BR,1722867233
498,chiredzi,-21.05,31.6667,34.8,7,0,5.37,ZW,1722867234
499,tateyama,34.9833,139.8667,26.17,88,61,1.0,JP,1722867235
500,kyren,51.6828,102.1408,16.5,90,98,0.76,RU,1722867134
501,ylistaro,62.9396,22.5131,23.64,61,91,1.3,FI,1722867237
502,ulanhot,46.0833,122.0833,21.94,70,0,3.4,CN,1722866741
503,kish,26.5578,54.0194,37.15,59,93,3.09,IR,1722867241
504,malvan,16.0667,73.4667,26.63,87,9,4.27,IN,1722867242
505,kirakira,-10.4544,161.9205,25.52,89,100,5.26,SB,1722867244
506,korla,41.7597,86.1469,34.19,22,98,3.7,CN,1722867245
507,golyshmanovo,56.3979,68.3728,20.01,80,95,2.94,RU,1722867246
508,la'ie,21.6477,-157.9253,25.25,80,99,2.24,US,1722866718
509,strezhevoy,60.7333,77.5889,20.27,79,100,2.33,RU,1722867248
510,rovinj,45.08,13.64,32.27,50,46,2.11,HR,1722867249
511,miri,4.4148,114.0089,27.08,94,20,0.0,MY,1722867250
512,bella vista,36.4295,-94.2316,28.88,70,0,2.57,US,1722867251
513,bundibugyo,0.7414,30.0417,29.13,50,100,1.65,UG,1722867252
514,andergrove,-21.0833,149.1833,15.91,88,25,1.46,AU,1722866731
515,kristiansund,63.1115,7.732,20.03,81,0,3.09,NO,1722867254
516,kapa'a,22.0752,-159.319,24.5,83,20,6.17,US,1722866841
517,freetown,8.484,-13.2299,26.2,80,99,2.63,SL,1722867256
518,malango,-2.9627,119.9001,18.7,100,58,0.96,ID,1722867257
519,altagracia de orituco,9.8601,-66.3814,27.56,68,100,1.6,VE,1722867258
520,jieshi,22.8134,115.8257,28.67,86,54,0.21,CN,1722867259
521,khalkhal,37.6189,48.5258,25.68,42,0,4.05,IR,1722867260
522,inhambane,-23.865,35.3833,22.99,78,75,6.69,MZ,1722867261
523,peniche,39.3558,-9.3811,26.71,75,7,7.28,PT,1722867262
524,alappuzha,9.49,76.3264,26.45,85,95,3.12,IN,1722867263
525,ballito,-29.539,31.2144,19.08,55,20,2.57,ZA,1722867264
526,sao felix do xingu,-6.6447,-51.995,32.44,25,0,3.17,BR,1722867030
527,sovetskaya gavan',48.9723,140.2878,13.53,97,72,2.8,RU,1722867266
528,tailai,46.3833,123.4,24.05,66,36,3.65,CN,1722867268
529,kruisfontein,-34.0033,24.7314,16.6,40,2,4.47,ZA,1722867269
530,sakakah,29.9697,40.2064,37.76,15,3,6.72,SA,1722867270
531,abra pampa,-22.7205,-65.697,7.27,16,0,3.72,AR,1722867271
532,sur,22.5667,59.5289,31.46,58,84,2.73,OM,1722867272
533,villa dolores,-31.9459,-65.1896,18.16,28,7,3.21,AR,1722867273
534,avarua,-21.2078,-159.775,24.03,78,3,3.09,CK,1722867274
535,kiunga,-6.1219,141.2906,22.88,99,99,1.85,PG,1722867275
536,fisterra,42.9049,-9.2629,26.68,93,36,4.64,ES,1722867276
537,belyy yar,53.6039,91.3903,19.94,68,40,7.0,RU,1722867277
538,chernomorskoye,45.5039,32.6997,24.83,58,97,6.93,UA,1722867278
539,boa vista,2.8197,-60.6733,28.99,70,40,1.54,BR,1722867279
540,jacutinga,-22.2856,-46.6122,26.97,31,0,2.61,BR,1722867280
541,along,28.1667,94.7667,22.4,98,17,0.21,IN,1722867281
542,sinop,41.7711,34.8709,20.38,91,92,3.04,TR,1722866759
543,bridlington,54.0831,-0.1919,24.96,65,5,7.18,GB,1722867283
544,cururupu,-1.8283,-44.8683,30.54,54,44,2.57,BR,1722867284
545,port augusta,-32.5,137.7667,8.21,83,4,1.49,AU,1722867285
546,kuqa,41.7278,82.9364,33.43,19,7,2.76,CN,1722867286
547,cam ranh,11.9214,109.1591,28.98,70,20,2.57,VN,1722867287
548,konya,38.1667,32.5,29.71,35,90,7.69,TR,1722867288
549,mansa,29.9833,75.3833,32.76,55,75,4.77,IN,1722867289
550,sharypovo,55.5403,89.2008,17.54,89,98,2.28,RU,1722867290
551,taltal,-25.4,-70.4833,16.26,69,0,3.41,CL,1722867292
552,ciudad bolivar,8.1222,-63.5497,29.08,70,100,2.63,VE,1722867293
553,newport,51.5877,-2.9984,23.23,81,100,4.93,GB,1722867294
554,qamdo,31.1667,97.2333,10.82,54,2,2.13,CN,1722867295
555,yaren,-0.5472,166.916,28.76,73,95,6.11,NR,1722867296
556,kaga bandoro,6.9896,19.1874,27.68,67,100,1.7,CF,1722867297
557,isla vista,34.4133,-119.861,13.94,94,40,0.0,US,1722866832
558,ascencion,31.1,-107.9833,28.08,36,23,0.82,MX,1722867299
559,kaa-khem,51.6833,94.7333,23.59,33,20,2.89,RU,1722867300
