City_ID,City,Lat,Lng,Max Temp,Humidity,Cloudiness,Wind Speed,Country,Date
0,iwanai,42.9744,140.5089,27.35,74,54,2.27,JP,1722637982
1,waitangi,-43.9535,-176.5597,8.79,73,49,5.36,NZ,1722637983
2,hamilton,39.1834,-84.5333,27.82,76,40,3.58,US,1722637984
3,crucecita,-28.95,-58.9833,30.29,30,0,8.16,AR,1722637985
4,iqaluit,63.7506,-68.5145,7.85,57,75,0.0,CA,1722637986
5,lompoc,34.6391,-120.4579,28.1,46,0,4.9,US,1722637988
6,macusani,-14.0833,-70.4333,4.5,65,35,2.84,PE,1722637989
7,port-aux-francais,-49.35,70.2167,1.6,73,75,12.55,TF,1722637990
8,marsh harbour,26.5412,-77.0636,28.76,78,78,7.77,BS,1722637991
9,cabo san lucas,22.8909,-109.9124,35.61,51,20,6.69,MX,1722637992
10,avarua,-21.2078,-159.775,23.03,53,100,0.51,CK,1722637993
11,yellowknife,62.456,-114.3525,19.29,54,20,4.12,CA,1722637994
12,adamstown,-25.066,-130.1015,20.18,77,27,2.82,PN,1722637995
13,puerto natales,-51.7236,-72.4875,0.25,100,100,1.03,CL,1722637996
14,vorgashor,67.5833,63.95,14.43,73,8,5.41,RU,1722637997
15,ketchikan,55.3422,-131.6461,21.86,56,0,8.23,US,1722637998
16,macomer,40.262,8.7699,22.19,43,62,3.09,IT,1722637999
17,coos bay,43.3665,-124.2179,23.52,73,75,5.66,US,1722638000
18,kondopoga,62.2057,34.2614,11.82,98,49,1.52,RU,1722638001
19,dudinka,69.4058,86.1778,13.77,74,56,2.58,RU,1722638002
20,tazovsky,67.4667,78.7,12.9,97,78,3.82,RU,1722638003
21,ponte nova,-20.4164,-42.9086,17.82,55,1,1.39,BR,1722638004
22,la passe,45.5549,-0.8967,18.13,86,24,4.74,FR,1722638005
23,tangalle,6.024,80.7911,25.9,84,100,5.03,LK,1722638006
24,nemuro,43.3236,145.575,17.82,84,77,4.1,JP,1722638007
25,mermoz boabab,14.7065,-17.4758,28.31,74,75,3.09,SN,1722638009
26,aban,56.67,96.06,14.8,97,6,1.55,RU,1722638010
27,vilyuchinsk,52.9306,158.4028,17.15,79,100,3.65,RU,1722638012
28,vadso,70.0744,29.7487,11.49,87,75,3.6,NO,1722638013
29,aginskoye,51.1,114.53,16.03,94,100,5.49,RU,1722638014
30,caluula,11.9661,50.7569,30.08,73,70,2.66,SO,1722638015
31,san clemente del tuyu,-36.3569,-56.7235,16.04,79,87,7.98,AR,1722638016
32,ciudad constitucion,25.0369,-111.6644,36.34,27,99,8.15,MX,1722638017
33,bilibino,68.0546,166.4372,11.11,49,100,2.73,RU,1722638018
34,salinopolis,-0.6136,-47.3561,26.78,78,65,5.78,BR,1722638019
35,fauske,67.2588,15.3918,15.43,82,71,1.6,NO,1722638020
36,punta arenas,-53.15,-70.9167,4.06,87,100,5.14,CL,1722638021
37,saudarkrokur,65.7461,-19.6394,10.86,84,82,1.99,IS,1722638022
38,hermanus,-34.4187,19.2345,4.89,80,0,1.46,ZA,1722638023
39,fort st. john,56.2499,-120.8529,21.94,30,75,1.54,CA,1722638025
40,talnakh,69.4865,88.3972,16.86,68,66,0.4,RU,1722638026
41,las heras,-46.5419,-68.9359,7.5,69,80,9.85,AR,1722638027
42,kailua-kona,19.6406,-155.9956,28.98,74,40,5.66,US,1722638028
43,anadyr,64.75,177.4833,9.28,93,100,6.0,RU,1722638029
44,bethel,41.3712,-73.414,29.2,75,0,3.09,US,1722638030
45,fort mcmurray,56.7268,-111.381,23.73,35,75,4.12,CA,1722637813
46,salekhard,66.53,66.6019,15.09,90,97,8.06,RU,1722638033
47,edinburgh of the seven seas,-37.0676,-12.3116,9.41,50,73,14.21,SH,1722638034
48,laojunmiao,39.8333,97.7333,19.25,34,1,3.52,CN,1722638035
49,whistler,50.1164,-122.9695,29.57,28,75,3.09,CA,1722637980
50,qaqortoq,60.7167,-46.0333,7.82,78,0,1.03,GL,1722638039
51,tura,25.5198,90.2201,23.4,99,100,2.42,IN,1722638040
52,timbiqui,2.7717,-77.6654,25.24,90,67,2.18,CO,1722638041
53,hithadhoo,-0.6,73.0833,28.31,76,96,2.96,MV,1722638042
54,isafjordur,66.0755,-23.124,10.02,81,75,5.14,IS,1722638043
55,mumbwa,-14.9783,27.0619,14.65,51,0,2.12,ZM,1722638044
56,saipan,15.1355,145.701,29.39,79,75,6.17,MP,1722638045
57,contamana,-7.3333,-75.0167,30.71,37,48,1.71,PE,1722638046
58,washington,47.5001,-120.5015,39.21,17,93,2.63,US,1722637585
59,corner brook,48.9667,-57.9484,19.09,88,13,1.28,CA,1722637809
60,dumka,24.2667,87.25,24.83,94,100,4.55,IN,1722638049
61,longyearbyen,78.2186,15.6401,13.91,77,0,1.03,SJ,1722638050
62,erzincan,39.75,39.5,20.61,46,0,4.12,TR,1722638051
63,ribeira grande,38.5167,-28.7,22.65,82,7,3.58,PT,1722638052
64,tazacorte,28.629,-17.9293,22.54,78,0,7.72,ES,1722638053
65,grytviken,-54.2811,-36.5092,1.19,89,100,5.99,GS,1722638054
66,kodiak,57.79,-152.4072,13.73,77,0,2.57,US,1722638057
67,clarksville,36.5298,-87.3595,31.1,67,40,8.75,US,1722637849
68,blackmans bay,-43.0167,147.3167,9.29,77,100,0.89,AU,1722638060
69,ogre,56.8162,24.614,15.29,97,10,2.06,LV,1722638061
70,weno,7.4515,151.8468,26.97,89,100,2.06,FM,1722638062
71,freeport,40.6576,-73.5832,29.02,81,20,8.23,US,1722637795
72,san andres,12.5847,-81.7006,30.01,74,20,4.63,CO,1722638065
73,tulum,20.2167,-87.4667,30.79,64,65,2.55,MX,1722638046
74,college,64.8569,-147.8028,11.18,88,100,4.63,US,1722638067
75,udachny,66.4167,112.4,15.26,62,62,0.09,RU,1722638068
76,grove,51.6095,-1.4219,19.99,84,75,2.06,GB,1722638069
77,brookings,44.3114,-96.7984,33.0,52,0,3.09,US,1722638070
78,okhotsk,59.3833,143.3,13.96,65,12,5.08,RU,1722638071
79,rosario oeste,-14.8361,-56.4275,29.24,26,5,2.47,BR,1722638072
80,luderitz,-26.6481,15.1594,15.2,46,0,2.53,NA,1722638073
81,atafu village,-8.5421,-172.5159,28.34,73,14,7.2,TK,1722638074
82,constantia,44.1833,28.65,22.61,71,23,5.7,RO,1722638075
83,nova vicosa,-17.8919,-39.3719,22.14,88,20,3.36,BR,1722638077
84,iskateley,67.6803,53.1512,10.76,90,1,6.01,RU,1722638078
85,tofol,5.3248,163.0078,30.88,70,75,1.03,FM,1722638079
86,aasiaat,68.7098,-52.8699,3.95,86,47,1.35,GL,1722638080
87,east london,-33.0153,27.9116,14.31,80,26,1.89,ZA,1722638081
88,port mathurin,-19.6833,63.4167,22.03,72,82,5.91,MU,1722638082
89,zuyevka,58.405,51.1335,13.32,91,30,0.59,RU,1722638083
90,st. john's,47.5649,-52.7093,21.82,93,75,8.23,CA,1722637799
91,olonkinbyen,70.9221,-8.7187,5.74,94,100,5.13,SJ,1722638085
92,ust-nera,64.5667,143.2,9.24,67,79,0.6,RU,1722638086
93,port elizabeth,-33.918,25.5701,9.16,93,0,2.06,ZA,1722637800
94,minas de marcona,-15.2119,-75.1103,13.2,71,0,5.2,PE,1722638088
95,georgetown,5.4112,100.3354,28.96,75,20,1.54,MY,1722637981
96,mahina,-17.5065,-149.489,25.87,53,20,2.57,PF,1722638090
97,hawaiian paradise park,19.5933,-154.9731,27.15,79,100,5.14,US,1722638092
98,huedin,46.8667,23.05,18.23,48,100,2.08,RO,1722638093
99,grand falls-windsor,48.9332,-55.6649,12.5,89,100,3.08,CA,1722637928
100,waddan,29.1614,16.139,27.43,43,0,4.23,LY,1722638095
101,turochak,52.2576,87.1224,15.33,93,51,1.33,RU,1722638096
102,lihue,21.9789,-159.3672,28.58,66,40,4.63,US,1722638097
103,petropavlovsk-kamchatsky,53.0452,158.6483,16.33,100,75,0.0,RU,1722638098
104,selfoss,63.9331,-20.9971,8.94,85,73,1.6,IS,1722638100
105,tombodu,8.1333,-10.6167,22.19,99,98,1.17,SL,1722638101
106,opuwo,-18.0607,13.84,17.42,35,0,1.89,NA,1722638102
107,zaozersk,69.4005,32.4476,7.93,95,20,3.45,RU,1722638103
108,namibe,-15.1961,12.1522,17.86,85,47,1.76,AO,1722638104
109,invercargill,-46.4,168.35,2.23,98,34,0.89,NZ,1722638105
110,west island,-12.1568,96.8225,26.99,74,100,4.63,CC,1722638106
111,gadzhiyevo,69.2551,33.3362,8.93,93,30,4.04,RU,1722638107
112,albany,42.6001,-73.9662,24.23,91,100,1.85,US,1722638108
113,sarupathar,26.1984,93.8094,24.13,97,100,1.56,IN,1722638109
114,lebu,-37.6167,-73.65,9.88,91,81,4.77,CL,1722638110
115,nova sintra,14.8667,-24.7167,25.36,75,99,8.7,CV,1722638111
116,codrington,-38.2667,141.9667,8.77,86,100,2.68,AU,1722638112
117,bonthe,7.5264,-12.505,24.34,93,100,6.11,SL,1722638113
118,big spring,32.2504,-101.4787,38.25,26,0,3.6,US,1722638114
119,papatowai,-46.5619,169.4708,7.33,71,62,0.6,NZ,1722638115
120,ilulissat,69.2167,-51.1,10.01,71,0,0.51,GL,1722638116
121,san patricio,28.017,-97.5169,34.53,52,63,5.56,US,1722638117
122,red hill,33.9996,-79.2581,28.41,59,82,5.81,US,1722638118
123,vinzons,14.1737,122.9066,26.35,88,15,0.93,PH,1722638119
124,ad dabbah,18.05,30.95,30.38,54,100,2.17,SD,1722638120
125,stanley,54.868,-1.6985,15.99,90,75,2.57,GB,1722638121
126,booue,-0.0921,11.9385,25.54,61,27,0.94,GA,1722638123
127,carnarvon,-24.8667,113.6333,16.15,73,0,5.32,AU,1722638124
128,kolasib,24.2333,92.7,20.24,100,100,0.49,IN,1722638125
129,revda,56.801,59.9303,12.39,98,58,2.47,RU,1722638126
130,rurrenabaque,-14.4413,-67.5278,29.83,61,20,5.14,BO,1722638127
131,tindouf,27.6711,-8.1474,36.25,8,0,2.06,DZ,1722638128
132,morondava,-20.2833,44.2833,19.46,77,0,2.68,MG,1722638129
133,muana,-1.5283,-49.2167,27.63,64,59,2.02,BR,1722638130
134,kavaratti,10.5669,72.642,28.07,74,100,8.21,IN,1722638131
135,abepura,-2.6333,140.5833,27.45,89,20,1.54,ID,1722638132
136,mount gambier,-37.8333,140.7667,7.65,93,98,1.5,AU,1722638133
137,ogori-shimogo,34.1,131.4,30.7,80,18,0.92,JP,1722638134
138,thompson,55.7435,-97.8558,18.09,72,75,4.63,CA,1722638135
139,morehead city,34.7229,-76.726,30.0,82,0,6.17,US,1722638136
140,bayji,34.9311,43.487,32.37,22,0,4.61,IQ,1722638137
141,warora,20.2333,79.0,24.08,94,100,3.54,IN,1722638138
142,hirara,24.8,125.2833,28.92,100,43,0.51,JP,1722638139
143,nuuk,64.1835,-51.7216,4.34,93,100,3.09,GL,1722637862
144,egilsstadir,65.2653,-14.3948,12.95,76,75,3.6,IS,1722638141
145,paita,-5.0892,-81.1144,18.55,81,60,7.3,PE,1722638142
146,utrik,11.2278,169.8474,28.19,73,12,1.98,MH,1722638144
147,lander,42.833,-108.7307,36.45,11,0,6.15,US,1722638145
148,bikenibeu village,1.3673,173.1241,30.98,70,20,3.09,KI,1722638146
149,buka,40.8108,69.1986,24.13,33,5,1.48,UZ,1722638147
150,port douglas,-16.4833,145.4667,21.58,79,77,8.0,AU,1722638148
151,enewetak,11.3474,162.3373,28.49,79,48,4.61,MH,1722638149
152,beira,-19.8436,34.8389,17.05,94,0,2.57,MZ,1722638150
153,guelmim,28.987,-10.0574,27.66,41,0,1.47,MA,1722638151
154,afaahiti,-17.75,-149.2833,24.93,65,36,3.99,PF,1722638152
155,wuhu,31.3366,118.3755,30.35,75,11,2.03,CN,1722638153
156,rudnichnyy,59.617,52.4703,12.48,97,61,1.17,RU,1722638154
157,callao,-12.0667,-77.15,22.46,72,0,6.69,PE,1722638155
158,koping,59.514,15.9926,14.38,73,26,1.54,SE,1722638156
159,new plymouth,-39.0667,174.0833,10.44,52,0,1.76,NZ,1722638157
160,westport,41.1415,-73.3579,29.67,76,0,4.12,US,1722637446
161,tiksi,71.6872,128.8694,7.56,62,100,0.64,RU,1722638159
162,fort bragg,35.139,-79.006,27.32,81,0,3.09,US,1722638160
163,wenchang,30.904,118.4887,30.14,73,0,1.5,CN,1722638161
164,puerto ayora,-0.7393,-90.3518,26.98,74,77,4.67,EC,1722638052
165,ushuaia,-54.8,-68.3,1.81,93,100,2.06,AR,1722638163
166,bodo,67.28,14.405,15.43,91,0,1.54,NO,1722638164
167,rio grande,-32.035,-52.0986,19.41,84,6,7.05,BR,1722638167
168,maracacume,-2.0428,-45.9592,23.8,81,95,2.08,BR,1722638168
169,hun,29.1268,15.9477,27.59,40,0,2.78,LY,1722638169
170,jamestown,42.097,-79.2353,24.77,89,100,2.57,US,1722638074
171,hilo,19.7297,-155.09,27.27,76,100,5.14,US,1722638171
172,aral,40.5156,81.2636,29.28,34,97,1.11,CN,1722638172
173,cabedelo,-6.9811,-34.8339,23.37,84,55,6.77,BR,1722638173
174,sechura,-5.5569,-80.8222,20.96,66,56,8.05,PE,1722638174
175,kharan,28.5833,65.4167,31.89,52,100,6.27,PK,1722638175
176,xiaoshi,41.2971,124.1209,24.85,93,92,0.76,CN,1722638176
177,prado,-17.3411,-39.2208,21.98,87,2,1.1,BR,1722638177
178,mon,26.75,95.1,21.63,96,100,1.16,IN,1722637879
179,wailua homesteads,22.0669,-159.378,28.4,65,40,4.63,US,1722638179
180,yerofey pavlovich,53.9667,121.9667,16.25,46,100,1.2,RU,1722638116
181,abu jibeha,11.4562,31.2285,22.67,84,100,1.65,SD,1722638181
182,kingston,17.997,-76.7936,30.53,74,20,5.14,JM,1722637969
183,sao paulo de olivenca,-3.3783,-68.8725,27.22,68,82,1.29,BR,1722638183
184,biltine,14.5333,20.9167,25.78,74,12,1.98,TD,1722638184
185,amalapuram,16.5833,82.0167,25.78,88,100,2.54,IN,1722638185
186,whitehorse,60.7161,-135.0538,15.01,56,75,3.6,CA,1722638186
187,banes,20.9625,-75.7186,25.47,85,100,1.93,CU,1722638188
188,remire-montjoly,4.9167,-52.2667,26.02,94,0,0.0,GF,1722638189
189,east ballina,-28.8667,153.5833,14.89,75,40,5.67,AU,1722638190
190,flying fish cove,-10.4217,105.6791,23.82,88,75,4.63,CX,1722638191
191,fortuna,40.5982,-124.1573,19.64,89,100,3.6,US,1722638192
192,urengoy,65.9667,78.3667,18.01,82,100,3.96,RU,1722638193
193,ploneour-lanvern,47.9,-4.2833,18.18,88,75,2.57,FR,1722638194
194,praia da vitoria,38.7333,-27.0667,23.75,78,20,2.09,PT,1722638195
195,vung tau,10.346,107.0843,26.97,85,49,4.69,VN,1722638196
196,pizarro,4.9533,-77.366,26.6,83,32,3.55,CO,1722638197
197,lobujya,27.95,86.8167,3.07,96,100,1.49,NP,1722638198
198,touros,-5.1989,-35.4608,23.28,89,34,5.44,BR,1722638199
199,nadvoitsy,63.8667,34.3167,10.55,96,84,2.55,RU,1722638200
200,zahedan,29.4963,60.8629,26.95,21,42,0.0,IR,1722638202
201,keflavik,64.0049,-22.5624,12.95,82,75,5.66,IS,1722638203
202,murghob,38.1702,73.9667,12.23,65,69,0.95,TJ,1722638204
203,cooper's town,26.8667,-77.5167,29.08,78,0,8.81,BS,1722638205
204,cody,44.5263,-109.0565,36.13,17,0,2.68,US,1722638206
205,zanjan,36.6736,48.4787,17.81,74,5,2.96,IR,1722638207
206,romanovka,51.7443,42.7527,14.79,72,49,2.95,RU,1722638208
207,howrah,22.5892,88.3103,28.0,94,75,4.12,IN,1722638210
208,island harbour,50.724,-1.2758,19.56,73,72,2.24,GB,1722638211
209,ixtapa,20.7,-105.2,31.79,74,75,4.63,MX,1722638212
210,tolanaro,-25.0319,46.9987,18.04,88,40,0.0,MG,1722638213
211,sierra vista,31.5545,-110.3037,35.96,25,20,3.09,US,1722638050
212,bonito,-21.1211,-56.4819,29.32,24,0,3.71,BR,1722637980
213,juneau,58.3019,-134.4197,18.0,100,75,3.09,US,1722638217
214,banjarmasin,-3.3244,114.591,25.08,96,88,0.9,ID,1722637960
215,san juan bautista,-14.0108,-75.7358,22.01,46,0,1.57,PE,1722638219
216,mount pearl,47.5166,-52.7813,21.36,90,75,8.23,CA,1722638220
217,kununurra,-15.7667,128.7333,14.99,82,6,0.0,AU,1722638221
218,el calafate,-50.3408,-72.2768,2.13,93,100,1.3,AR,1722638222
219,arboletes,8.8505,-76.4269,27.56,79,100,1.89,CO,1722638223
220,tralee,52.2704,-9.7026,11.59,85,93,2.84,IE,1722638224
221,bredasdorp,-34.5322,20.0403,6.88,93,1,1.82,ZA,1722638225
222,jesus maria,-30.9815,-64.0942,24.73,33,100,2.31,AR,1722637983
223,palmas,-10.2128,-48.3603,28.93,34,0,2.57,BR,1722637504
224,la ronge,55.1001,-105.2842,23.14,31,20,6.69,CA,1722638228
225,gardnerville ranchos,38.8882,-119.7413,36.22,19,0,4.02,US,1722638229
226,inari,68.906,27.0288,14.11,94,8,2.81,FI,1722638230
227,adrar,20.5022,-10.0711,35.82,26,1,4.45,MR,1722638232
228,krasavino,60.9614,46.4814,13.35,96,72,2.56,RU,1722638233
229,mar del plata,-38.0023,-57.5575,17.19,82,100,0.89,AR,1722638176
230,hovd,48.0056,91.6419,18.84,41,0,1.64,MN,1722638235
231,umba,66.6871,34.3429,12.3,76,89,6.2,RU,1722638236
232,lianzhou,24.7811,112.3825,25.57,96,34,0.74,CN,1722638237
233,sao jose da coroa grande,-8.8978,-35.1478,23.9,83,63,5.42,BR,1722638238
234,namtsy,62.7161,129.6658,15.4,40,21,1.11,RU,1722637995
235,ayame,5.6083,-3.1563,22.53,95,89,1.58,CI,1722638240
236,el salto,20.3333,-104.5,20.35,83,100,1.82,MX,1722638241
237,lone grove,34.1754,-97.2628,36.58,38,0,4.63,US,1722638242
238,morant bay,17.8815,-76.4093,30.79,85,75,2.77,JM,1722638243
239,fale old settlement,-9.3852,-171.2468,28.26,72,31,7.67,TK,1722638244
240,yamoussoukro,6.8206,-5.2767,22.94,88,20,2.06,CI,1722638245
241,huarmey,-10.0681,-78.1522,18.05,80,0,4.9,PE,1722638246
242,alofi,-19.0595,-169.9187,24.94,65,75,4.12,NU,1722638247
243,ponta delgada,37.7333,-25.6667,23.4,83,40,2.06,PT,1722638248
244,bafia,4.75,11.2333,19.91,97,9,0.99,CM,1722638020
245,daru,-9.0763,143.2092,24.39,88,93,9.05,PG,1722638250
246,merizo village,13.2658,144.6691,27.21,90,100,10.26,GU,1722638251
247,gimbi,9.1667,35.8333,11.59,95,99,0.98,ET,1722638252
248,swift current,50.2834,-107.8014,32.45,22,0,11.83,CA,1722638254
249,badger,64.8,-147.5333,11.14,88,100,4.63,US,1722638255
250,chul'man,56.8479,124.9104,12.59,89,100,0.66,RU,1722638256
251,puerto san jose,13.9256,-90.8244,28.03,78,100,6.17,GT,1722638257
252,izhmorskiy,56.194,86.6414,16.5,93,50,1.76,RU,1722638258
253,andovoranto,-18.95,49.1,19.86,81,63,1.69,MG,1722638259
254,labytnangi,66.6572,66.4183,15.39,86,96,8.29,RU,1722638260
255,luanda,-8.8368,13.2343,20.0,88,41,3.6,AO,1722637995
256,retreat,38.8245,-85.8533,26.1,79,90,1.25,US,1722638262
257,bamboo flat,11.7,92.7167,27.16,82,100,6.05,IN,1722638263
258,poronaysk,49.2167,143.1167,14.68,86,100,1.78,RU,1722638264
259,belyy yar,53.6039,91.3903,16.94,94,0,2.0,RU,1722638265
260,geraldton,-28.7667,114.6,7.23,81,2,3.09,AU,1722638266
261,steelton,40.2354,-76.8414,32.42,58,40,4.12,US,1722638267
262,mata-utu,-13.2816,-176.1745,27.34,73,40,6.56,WF,1722638268
263,polyarnyy,69.1989,33.4478,8.83,93,26,3.81,RU,1722637994
264,kiunga,-6.1219,141.2906,23.3,96,97,2.01,PG,1722638271
265,kapa'a,22.0752,-159.319,29.15,65,40,4.63,US,1722638272
266,komsomolets,53.7453,62.0708,14.25,89,56,3.37,KZ,1722638273
267,port alfred,-33.5906,26.891,12.99,79,15,2.04,ZA,1722638276
268,colonia,50.9333,6.95,19.42,83,0,0.81,DE,1722638277
269,myeik,12.4333,98.6,26.4,86,100,0.41,MM,1722638278
270,ulsteinvik,62.3432,5.8487,14.06,81,100,0.45,NO,1722638279
271,queenstown,-31.8976,26.8753,9.63,42,7,2.89,ZA,1722638280
272,hassi messaoud,31.6804,6.0729,34.92,13,0,2.06,DZ,1722638281
273,kyosai,34.8503,128.5886,28.98,90,7,1.47,KR,1722638282
274,ar rutbah,33.0381,40.2848,27.88,35,0,6.61,IQ,1722638283
275,nueva gerona,21.8833,-82.8,30.37,65,84,3.56,CU,1722638284
276,nelson bay,-32.7167,152.15,10.06,97,15,0.89,AU,1722638285
277,nago,26.5881,127.9761,30.64,77,15,2.73,JP,1722638286
278,margate,51.3813,1.3862,19.83,78,90,3.85,GB,1722638011
279,cooma,-36.2333,149.1333,6.57,65,55,0.69,AU,1722638288
280,vila franca do campo,37.7167,-25.4333,23.23,86,13,2.23,PT,1722638289
281,ulundi,-28.3352,31.4162,15.28,81,70,1.43,ZA,1722638290
282,recani,31.2846,-4.2688,33.77,11,1,3.04,MA,1722638291
283,wynyard,-41.0,145.7167,9.84,90,100,3.14,AU,1722638292
284,broome,42.2506,-75.833,23.83,85,100,1.34,US,1722638294
285,sept-iles,50.2001,-66.3821,26.29,64,75,2.57,CA,1722638295
286,coquimbo,-29.9533,-71.3436,12.85,100,75,5.14,CL,1722637718
287,zhezqazghan,47.7833,67.7667,23.29,36,0,3.37,KZ,1722638297
288,happy valley-goose bay,53.3168,-60.3315,17.17,67,20,3.09,CA,1722638298
289,klyuchi,52.2667,79.1667,21.65,63,84,1.68,RU,1722638299
290,flin flon,54.7682,-101.865,24.91,33,40,5.66,CA,1722638300
291,newman,37.3138,-121.0208,33.99,14,98,4.22,US,1722638301
292,portland,45.5234,-122.6762,34.01,46,0,3.09,US,1722637707
293,aljezur,37.3191,-8.8033,18.3,88,0,6.12,PT,1722638303
294,haiku-pauwela,20.9219,-156.3051,27.92,80,75,7.2,US,1722638304
295,dergachi,51.2328,48.7659,17.05,56,10,3.33,RU,1722638305
296,cockburn town,21.4612,-71.1419,28.32,84,77,9.69,TC,1722638306
297,qamdo,31.1667,97.2333,8.76,89,92,1.57,CN,1722638307
298,sinabang,2.4803,96.3801,25.48,87,100,2.57,ID,1722638308
299,sawai madhopur,25.9833,76.3667,25.56,90,100,3.05,IN,1722638309
300,gunnedah,-30.9833,150.25,9.44,67,6,2.33,AU,1722638310
301,arraial do cabo,-22.9661,-42.0278,21.98,77,0,10.45,BR,1722638311
302,vetluga,57.8557,45.781,13.33,97,40,2.3,RU,1722638312
303,imperatriz,-5.5264,-47.4917,27.97,29,37,2.23,BR,1722637971
304,bambanglipuro,-7.95,110.2833,23.48,93,96,1.25,ID,1722638314
305,kulhudhuffushi,6.6221,73.07,28.22,77,100,4.9,MV,1722638315
306,pacific grove,36.6177,-121.9166,24.19,83,0,5.14,US,1722638163
307,porto novo,6.4965,2.6036,24.9,91,85,2.18,BJ,1722638318
308,hood river,45.7054,-121.5215,38.88,42,21,2.24,US,1722638320
309,kone,-21.0595,164.8658,21.4,59,21,3.76,NC,1722638321
310,margaret river,-33.95,115.0667,10.04,77,85,2.23,AU,1722638322
311,conduaga,8.862,117.4893,25.89,88,81,0.29,PH,1722638323
312,caleta de carquin,-11.0925,-77.6267,17.76,79,6,6.09,PE,1722638324
313,zyryanskoye,56.8306,86.6258,16.83,92,53,1.35,RU,1722638325
314,ha'il,27.5219,41.6907,32.01,23,0,3.09,SA,1722638326
315,port saint john's,-31.6229,29.5448,15.98,83,54,2.01,ZA,1722638327
316,tsiombe,-25.3,45.4833,15.99,83,0,1.96,MG,1722638328
317,las varillas,-31.8721,-62.7195,26.75,39,100,3.92,AR,1722638329
318,shouguang,36.88,118.7375,29.05,80,8,1.48,CN,1722638330
319,vorzel',50.5444,30.153,22.37,49,100,0.59,UA,1722638331
320,sitka,57.0531,-135.33,18.94,59,20,7.2,US,1722638332
321,divnogorsk,55.9594,92.3619,14.27,96,82,0.73,RU,1722638333
322,bouca,6.5105,18.2733,21.78,94,100,0.31,CF,1722638334
323,kaa-khem,51.6833,94.7333,18.29,52,4,1.9,RU,1722638335
324,castillos,-34.1667,-53.8333,21.07,68,67,4.64,UY,1722638336
325,pisco,-13.7,-76.2167,18.03,77,0,7.2,PE,1722638042
326,saynshand,44.8824,110.1163,20.46,67,100,7.81,MN,1722638339
327,bac lieu,9.285,105.7244,26.46,87,100,3.18,VN,1722638340
328,san antonio de pale,-1.4014,5.6325,22.46,77,69,5.14,GQ,1722638341
329,aydarken,39.9443,71.3429,17.06,44,43,1.07,KG,1722638342
330,angra do heroismo,38.65,-27.2167,23.95,81,20,1.79,PT,1722638344
331,laguna,38.421,-121.4238,37.28,33,0,2.06,US,1722638160
332,hasaki,35.7333,140.8333,27.94,75,44,2.19,JP,1722638346
333,airway heights,47.6446,-117.5933,39.9,16,75,2.57,US,1722638347
334,howard springs,-12.497,131.047,21.95,99,30,3.45,AU,1722638348
335,bethanie,-26.4833,17.15,12.36,17,0,2.93,NA,1722638349
336,bandarbeyla,9.4942,50.8122,25.9,73,76,12.95,SO,1722638350
337,port lincoln,-34.7333,135.8667,11.37,65,100,0.54,AU,1722638351
338,crane,31.3974,-102.3501,37.13,21,0,5.93,US,1722638352
339,betio village,1.358,172.9211,31.02,73,7,5.48,KI,1722638353
340,hadibu,12.65,54.0333,26.11,79,72,11.12,YE,1722638354
341,labuan,5.2767,115.2417,23.2,100,20,0.0,MY,1722638085
342,tselinnoye,53.0833,85.6667,17.6,86,83,2.47,RU,1722638356
343,farasan,16.7022,42.1183,29.1,79,100,7.96,SA,1722638358
344,cruzeiro do sul,-29.5128,-51.9853,23.62,74,0,1.93,BR,1722638359
345,macau,22.2006,113.5461,28.89,89,20,2.57,MO,1722638360
346,christchurch,-43.5333,172.6333,5.93,83,0,2.06,NZ,1722637918
347,freetown,8.484,-13.2299,24.23,94,100,8.0,SL,1722638364
348,timbuktu,16.7735,-3.0074,32.68,45,87,4.64,ML,1722638365
349,bom jesus,-9.0744,-44.3586,24.21,37,48,2.03,BR,1722638366
350,sirte,31.2089,16.5887,26.06,68,0,3.46,LY,1722638367
351,mil'kovo,55.6078,37.7956,16.46,71,80,3.09,RU,1722638368
352,tianshui,34.5439,105.6897,20.86,89,100,1.6,CN,1722638369
353,curup,-3.4667,102.5333,20.02,98,45,1.66,ID,1722638370
354,peniche,39.3558,-9.3811,20.67,91,0,8.23,PT,1722638371
355,ulaangom,49.9811,92.0667,18.58,51,7,0.49,MN,1722638372
356,tokar,18.4254,37.729,27.82,60,77,9.48,SD,1722638373
357,al hazm,16.1641,44.7769,27.39,52,100,3.45,YE,1722638374
358,trincomalee,8.5711,81.2335,27.7,73,99,9.03,LK,1722638375
359,shingu,33.7333,135.9833,29.03,74,71,1.62,JP,1722638376
360,bubaque,11.2833,-15.8333,26.5,75,97,5.61,GW,1722638377
361,mogocha,53.7333,119.7667,16.06,46,100,0.86,RU,1722638378
362,pahrump,36.2083,-115.9839,36.36,25,100,1.08,US,1722638380
363,ebaye,8.7748,167.7392,29.01,79,0,2.57,MH,1722638381
364,sinjai,-5.1241,120.253,23.7,89,56,1.29,ID,1722638382
365,ampanihy,-24.7,44.75,14.83,88,0,2.37,MG,1722638383
366,carutapera,-1.195,-46.02,25.71,81,76,3.61,BR,1722638384
367,soio,-6.1349,12.3689,20.16,89,64,3.67,AO,1722638385
368,manokwari,-0.8667,134.0833,26.84,73,72,1.0,ID,1722638247
369,hobyo,5.3505,48.5268,24.59,83,100,12.49,SO,1722638387
370,chonchi,-42.6128,-73.8092,7.56,93,100,4.36,CL,1722638388
371,waldmunchen,49.3786,12.7042,15.16,93,0,0.48,DE,1722638389
372,tank,32.2217,70.3793,34.87,47,44,3.58,PK,1722638390
373,palmer,42.1584,-72.3287,26.11,79,100,2.57,US,1722638391
374,muhos,64.808,25.9931,16.88,98,57,1.81,FI,1722638392
375,awjilah,29.1081,21.2869,26.25,58,0,5.03,LY,1722638393
376,colesberg,-30.72,25.0972,9.15,28,0,2.07,ZA,1722638394
377,villa gesell,-37.2639,-56.973,22.81,68,97,6.97,AR,1722638100
378,sisimiut,66.9395,-53.6735,7.79,76,6,1.79,GL,1722638396
379,sao joao da barra,-21.6403,-41.0511,20.05,78,1,6.48,BR,1722638397
380,san luis de la loma,17.2706,-100.8939,28.49,76,100,2.01,MX,1722638398
381,jindabyne,-36.4167,148.6333,5.87,33,62,1.05,AU,1722638399
382,karatau,43.1667,70.4667,24.75,35,0,1.8,KZ,1722638401
383,sibu,2.3,111.8167,22.17,100,20,1.54,MY,1722638402
384,quellon,-43.1167,-73.6167,8.3,89,100,6.31,CL,1722638403
385,san pedro pochutla,15.7333,-96.4667,28.17,66,100,0.64,MX,1722638404
386,puerto deseado,-47.7503,-65.8938,9.23,65,0,7.02,AR,1722638405
387,singkil,-7.9855,111.4161,22.83,94,66,1.56,ID,1722638407
388,kabba,7.8287,6.0731,21.08,98,98,2.5,NG,1722638408
389,kivertsi,50.8343,25.4582,16.28,70,100,3.7,UA,1722638409
390,peterhead,57.5058,-1.7981,16.36,97,100,4.78,GB,1722638410
391,holmsund,63.706,20.3641,16.97,72,75,4.12,SE,1722638411
392,tweed heads,-28.1817,153.547,17.32,65,10,5.14,AU,1722638412
393,darwin,-12.4611,130.8418,21.99,88,0,3.09,AU,1722638413
394,spring creek,40.7266,-115.5859,37.39,10,100,2.5,US,1722638414
395,sallisaw,35.4604,-94.7875,37.08,26,0,2.57,US,1722638415
396,champerico,14.3,-91.9167,29.3,76,85,4.25,GT,1722638416
397,gornyy,55.1153,83.9059,16.71,92,1,2.94,RU,1722638417
398,chegdomyn,51.1167,133.0167,20.72,55,0,0.64,RU,1722638418
399,mount isa,-20.7333,139.5,17.87,48,0,2.06,AU,1722638419
400,cavalaire-sur-mer,43.174,6.5272,28.42,69,40,2.48,FR,1722638421
401,didim,37.3756,27.2678,20.76,72,0,1.44,TR,1722638422
402,filey,54.21,-0.2892,19.82,80,98,2.24,GB,1722638423
403,chinde,26.8212,87.7095,22.78,99,100,2.41,NP,1722638424
404,rochester,43.1548,-77.6156,24.86,91,100,1.29,US,1722638159
405,pasni,25.2631,63.471,27.75,85,100,1.9,PK,1722638426
406,phan rang-thap cham,11.5667,108.9833,25.15,86,45,0.98,VN,1722638427
407,lundazi,-12.2929,33.1782,14.15,44,1,3.14,ZM,1722638428
408,hotan,37.0997,79.9269,28.49,33,13,4.45,CN,1722638429
409,lindsay,36.203,-119.0882,33.21,35,0,4.12,US,1722638430
410,nchelenge,-9.3451,28.734,18.33,47,6,3.15,ZM,1722638431
411,kamina,-8.7386,24.9906,16.26,29,0,1.2,CD,1722638432
412,hailar,49.2,119.7,18.86,49,100,2.44,CN,1722638433
413,susuman,62.7833,148.1667,7.73,51,99,1.9,RU,1722638434
414,alice springs,-23.7,133.8833,4.75,65,63,2.57,AU,1722638435
415,dien bien phu,21.3833,103.0167,22.37,98,100,1.01,VN,1722638436
416,inhambane,-23.865,35.3833,18.68,83,0,4.49,MZ,1722638437
417,al kharijah,25.4514,30.5464,33.35,23,28,4.52,EG,1722638438
418,sambava,-14.2667,50.1667,18.85,81,7,3.46,MG,1722638439
419,sittwe,20.15,92.9,26.29,87,100,4.48,MM,1722638440
420,saint-philippe,-21.3585,55.7679,20.77,77,21,2.3,RE,1722638442
421,bull savanna,17.8868,-77.5902,26.19,77,69,4.74,JM,1722638443
422,sasebo,33.1592,129.7228,28.99,77,0,0.88,JP,1722638444
423,pimentel,-6.8367,-79.9342,19.16,77,40,10.29,PE,1722638445
424,kerikeri,-35.2268,173.9474,12.73,95,100,3.13,NZ,1722638446
425,oltinko'l,40.8011,72.1634,29.46,26,71,2.45,UZ,1722638447
426,isola di capo rizzuto,38.96,17.0933,26.64,57,0,2.65,IT,1722638448
427,harstad,68.799,16.5293,14.66,98,59,3.13,NO,1722638449
428,rantauprapat,2.1,99.8333,22.73,99,100,1.07,ID,1722638450
429,lerwick,60.1545,-1.1494,14.0,98,100,5.67,GB,1722638451
430,nar'yan-mar,67.6713,53.087,10.66,90,1,6.05,RU,1722638452
431,wanning,18.8003,110.3967,26.61,88,37,3.22,CN,1722638453
432,neryungri,56.6709,124.6491,12.88,89,100,0.6,RU,1722638454
433,holualoa,19.6228,-155.9522,26.91,74,40,5.66,US,1722638455
434,papao,-17.75,-149.55,25.82,66,3,4.86,PF,1722638456
435,cajamar,-23.3519,-46.8813,23.01,56,0,1.86,BR,1722638457
436,kapuskasing,49.4169,-82.4331,30.05,51,40,5.66,CA,1722638458
437,nolinsk,57.5596,49.9363,13.83,93,97,1.36,RU,1722638459
438,somers point,39.3176,-74.5946,29.08,77,0,6.17,US,1722638460
439,fukuecho,32.6881,128.8419,29.54,84,76,3.33,JP,1722638461
440,quelimane,-17.8786,36.8883,20.97,56,0,1.54,MZ,1722638462
441,aberdeen,57.1437,-2.0981,16.41,95,40,2.06,GB,1722638249
442,cifteler,39.3831,31.0392,20.74,41,0,2.81,TR,1722638464
443,santana,-0.0583,-51.1817,28.1,69,40,5.66,BR,1722638465
444,midvagur,62.0511,-7.1939,10.46,100,75,5.66,FO,1722638467
445,tarko-sale,64.9225,77.785,17.93,69,86,5.4,RU,1722638469
446,hameenlinna,60.996,24.4643,14.37,98,100,1.06,FI,1722638470
447,jonuta,18.0833,-92.1333,30.65,66,75,2.09,MX,1722638471
448,banda aceh,5.5577,95.3222,26.13,85,90,3.59,ID,1722638472
449,pitimbu,-7.4706,-34.8086,23.33,82,51,6.65,BR,1722638474
450,as suki,13.3167,33.8833,23.6,77,100,4.18,SD,1722638475
451,dryden,49.7833,-92.7503,27.16,36,20,5.14,CA,1722638323
452,onsala,57.4253,12.029,15.77,85,32,2.36,SE,1722638477
453,vorkuta,67.5,64.0,14.8,73,12,5.14,RU,1722638478
454,puerto baquerizo moreno,-0.9,-89.6,21.55,94,75,4.63,EC,1722638081
455,amboasary,-25.0333,46.3833,16.36,85,0,1.74,MG,1722638480
456,prieska,-29.6641,22.7474,10.37,13,0,1.44,ZA,1722638481
457,brisas de zicatela,15.8369,-97.0419,29.29,79,75,3.09,MX,1722638482
458,novyy urgal,51.0736,132.5642,20.05,69,6,1.19,RU,1722638483
459,cartagena,10.3997,-75.5144,30.79,79,40,3.6,CO,1722638383
460,bilokurakyne,49.5341,38.7307,16.8,57,15,2.43,UA,1722638486
461,uige,-7.6087,15.0613,19.1,72,37,0.85,AO,1722638487
462,fiambala,-27.6871,-67.6149,17.0,18,6,3.72,AR,1722638488
463,mende,44.6667,3.5,13.9,97,10,2.3,FR,1722638490
464,lazaro cardenas,17.9583,-102.2,29.59,70,100,4.36,MX,1722638491
465,katabu,-4.9333,122.5167,23.64,83,14,1.53,ID,1722638492
466,maxixe,-23.8597,35.3472,17.72,86,0,3.91,MZ,1722638493
467,agua branca,-5.8922,-42.6361,26.81,35,57,4.16,BR,1722638494
468,kourou,5.1552,-52.6478,26.03,81,74,2.63,GF,1722638334
469,juan griego,11.0817,-63.9655,33.07,55,55,8.23,VE,1722638496
470,mahates,10.2329,-75.1899,30.94,83,71,4.02,CO,1722638497
471,ranikhet,29.65,79.4167,18.21,96,100,0.88,IN,1722638498
472,tezu,27.9167,96.1667,24.26,100,98,0.17,IN,1722638499
473,omdurman,15.6445,32.4777,28.15,55,97,6.22,SD,1722638500
474,qarqaraly,49.4058,75.4742,16.03,82,94,1.99,KZ,1722638501
475,suomussalmi,64.8869,28.9078,12.73,98,76,3.23,FI,1722638502
476,zinjibar,13.1287,45.3807,31.53,51,100,8.66,YE,1722638503
477,macapa,0.0389,-51.0664,27.99,69,40,5.66,BR,1722638504
478,along,28.1667,94.7667,21.8,99,100,0.25,IN,1722638505
479,elamanchili,17.55,82.8667,26.74,82,100,2.79,IN,1722638506
480,hammerfest,70.6634,23.6821,14.25,88,6,2.57,NO,1722638508
481,haimen,23.1935,116.6142,25.94,87,0,2.25,CN,1722638509
482,khandyga,62.6667,135.6,12.77,56,21,1.11,RU,1722638510
483,sabang,5.8933,95.3214,28.38,77,99,5.71,ID,1722638511
484,greymouth,-42.4667,171.2,5.52,75,12,2.32,NZ,1722638512
485,acarau,-2.8856,-40.12,25.5,70,25,7.86,BR,1722638513
486,bereket,39.2446,55.5154,30.54,23,18,6.27,TM,1722638514
487,sumenep,-7.0167,113.8667,25.15,84,58,3.87,ID,1722638515
488,pingliang,35.5392,106.6861,19.7,88,100,0.38,CN,1722638517
489,mayahi,13.9553,7.6712,26.26,69,100,3.42,NE,1722638518
490,galliano,29.4422,-90.2992,36.0,51,68,2.9,US,1722638519
491,port-cartier,50.0334,-66.8654,26.12,88,92,1.52,CA,1722638520
492,mitu,1.1983,-70.1733,26.51,74,99,0.38,CO,1722638521
493,huicheng,23.0385,116.2899,27.24,90,0,2.67,CN,1722638522
494,pangody,65.85,74.4859,16.92,80,64,4.29,RU,1722638523
495,kuanda,56.3161,116.0806,16.07,88,99,0.91,RU,1722638524
496,sharypovo,55.5403,89.2008,16.06,92,78,1.73,RU,1722638525
497,magadan,59.5667,150.8,9.12,70,100,1.92,RU,1722638289
498,dolyna,48.9733,24.0094,18.52,81,100,2.4,UA,1722638527
499,ratnagiri,16.9833,73.3,26.27,88,100,7.28,IN,1722638529
500,columbia falls,48.3725,-114.1815,36.56,24,0,4.12,US,1722638530
501,ta`u,-14.2336,-169.5144,25.99,70,40,8.07,AS,1722638531
502,piti village,13.4626,144.6933,27.39,88,40,5.66,GU,1722638532
503,qarazhal,48.0078,70.7903,20.82,54,1,3.81,KZ,1722638533
504,belmonte,-15.8631,-38.8828,21.9,88,11,2.46,BR,1722638534
505,princeville,45.7668,-61.2985,24.82,84,1,0.97,CA,1722638535
506,buxar,25.5833,83.9833,27.01,82,100,10.27,IN,1722638536
507,kalyazin,57.2403,37.8433,11.12,99,36,3.08,RU,1722638537
508,konarka,19.9,86.1167,26.22,79,100,7.01,IN,1722638538
509,bosaso,11.2842,49.1816,31.87,45,66,8.11,SO,1722638539
510,ariquemes,-9.9133,-63.0408,29.89,34,28,0.54,BR,1722638540
511,chernyakhovsk,54.6335,21.8156,12.25,90,100,0.7,RU,1722638541
512,zhytkavichy,52.2168,27.8561,14.01,83,100,2.17,BY,1722638542
513,dunedin,-45.8742,170.5036,8.78,76,45,1.37,NZ,1722638414
514,tual,-5.6667,132.75,25.37,89,33,8.88,ID,1722638544
515,jinan,36.6683,116.9972,30.35,72,58,1.53,CN,1722638545
516,zilupe,56.3862,28.1217,11.43,94,44,2.35,LV,1722638547
517,the pas,53.8251,-101.2541,18.01,82,75,4.12,CA,1722638548
518,gondar,12.6,37.4667,13.74,90,100,0.67,ET,1722638549
519,belmopan,17.25,-88.7667,33.21,84,91,0.91,BZ,1722638550
520,wakkanai,45.4094,141.6739,16.5,98,100,9.9,JP,1722638551
521,boa vista,2.8197,-60.6733,25.99,83,75,1.54,BR,1722638523
522,lorengau,-2.0226,147.2712,28.6,77,91,3.62,PG,1722638553
523,maitum,6.0392,124.4986,26.9,71,16,1.04,PH,1722638554
524,tabou,4.423,-7.3528,24.21,83,100,4.53,CI,1722638555
525,fisterra,42.9049,-9.2629,17.79,83,0,4.49,ES,1722638556
526,bandipura,34.4167,74.65,20.77,94,60,0.66,IN,1722638557
527,arteche,12.2645,125.4048,25.94,88,68,1.33,PH,1722638558
528,isangel,-19.55,169.2667,19.9,87,100,7.43,VU,1722638267
529,murray bridge,-35.1167,139.2667,9.08,85,100,0.89,AU,1722638560
530,someshwar,13.5,75.0667,23.23,92,100,1.74,IN,1722638561
531,martapura,-3.4167,114.85,25.05,100,100,1.03,ID,1722638562
532,sabzevar,36.2126,57.6819,27.01,35,13,4.52,IR,1722638563
533,paranaiba,-19.6772,-51.1908,25.06,31,1,3.47,BR,1722638564
534,chipinge,-20.1883,32.6236,12.55,51,0,1.3,ZW,1722638565
535,cestos city,5.46,-9.5828,24.81,85,100,5.72,LR,1722638566
536,cururupu,-1.8283,-44.8683,23.05,89,69,1.05,BR,1722638569
537,point pedro,9.8167,80.2333,27.53,82,100,7.55,LK,1722638570
538,karratha,-20.7377,116.8463,19.69,80,82,3.53,AU,1722638571
539,ilhabela,-23.7781,-45.3581,19.43,94,0,4.16,BR,1722638365
540,ambon,-3.6954,128.1814,27.15,95,40,2.06,ID,1722638573
541,benghazi,32.1167,20.0667,26.92,69,0,4.52,LY,1722638574
542,sao vicente,-23.9631,-46.3919,17.75,26,1,0.23,BR,1722638394
543,rongelap,11.1635,166.8941,28.38,77,1,3.53,MH,1722638576
544,chazuta,-6.5742,-76.1367,33.47,61,80,0.91,PE,1722638577
545,el bauga,18.262,33.9081,26.0,71,87,4.8,SD,1722638578
546,plattsburgh,44.6995,-73.4529,29.12,65,0,1.63,US,1722638392
547,del rio,29.3627,-100.8968,39.06,29,0,7.2,US,1722638376
548,mirny,62.5353,113.9611,13.83,57,19,0.52,RU,1722638581
549,ejura,7.3856,-1.3562,22.63,93,99,2.57,GH,1722638582
550,bardai,11.65,7.2333,22.37,90,99,3.3,NG,1722638583
551,yuzhno-kurilsk,44.0306,145.8556,19.14,82,80,3.33,RU,1722638585
552,chitose,42.8194,141.6522,24.25,83,75,4.12,JP,1722638586
553,bo phloi,14.3236,99.5161,25.29,88,100,1.81,TH,1722638588
554,trevelin,-43.0858,-71.4639,3.71,98,85,2.51,AR,1722638589
555,naze,28.3667,129.4833,28.51,78,0,2.32,JP,1722638590
556,sola,-13.8833,167.55,26.07,79,8,5.8,VU,1722638591
557,terrace,54.5163,-128.6035,29.01,26,75,1.54,CA,1722638592
558,yauya,-8.9833,-77.3,13.65,57,17,2.14,PE,1722638593
559,onega,63.9061,38.1404,13.26,90,80,0.97,RU,1722638595
560,zhongshu,24.5167,103.7667,18.13,95,100,0.57,CN,1722638596
561,walvis bay,-22.9575,14.5053,13.46,69,0,2.23,NA,1722638597
562,rocha,-34.4833,-54.3333,22.34,66,92,6.37,UY,1722638546
563,ancud,-41.8697,-73.8203,8.59,89,100,8.6,CL,1722638599
564,tuxpam de rodriguez cano,20.95,-97.4,31.9,75,81,3.08,MX,1722638600
565,ulladulla,-35.35,150.4667,10.72,62,26,1.55,AU,1722638601
